[{"c":"pick","id":"0000109505","group":"Független","lat":"47.514110","lon":"19.036990","name":"TÖLGYFA ABC","zip":"1027","county":"Budapest","city":"II.","address":"1027, Budapest, Tölgyfa utca 9","desc":"Telefonszámok: 06 20 354 75 08 , 06 1 229 55 17 E-mail cím: tolgyfaabc@gmail.com","phone":""},{"c":"pick","id":"0000109612","group":"Független","lat":"47.516412","lon":"18.999755","name":"Pászka Centrum","zip":"1026","county":"Budapest","city":"II.","address":"1026, Budapest, Szilágyi Erzsébet fasor 121","desc":"csak készpénzes fizetés lehetséges!!","phone":""},{"c":"pick","id":"0000109415","group":"Független","lat":"47.595872","lon":"19.050363","name":"Szolárium Stúdió\/ Aster Cute Kft.","zip":"1039","county":"Budapest","city":"III.","address":"1039, Budapest, Hollós Korvin Lajos utca 3","desc":"Csak készpénzzel lehet fizetni a ponton.","phone":""},{"c":"pick","id":"0000109489","group":"Független","lat":"47.527705","lon":"19.039232","name":"Kárpáteurópa Utazási Iroda","zip":"1036","county":"Budapest","city":"III.","address":"1036, Budapest, Szépvölgyi út 3\/a","desc":"2023.12.29-én 14 óráig tart nyitva!","phone":""},{"c":"pick","id":"0000109337","group":"OMV","lat":"47.564055","lon":"19.078755","name":"BL XXL Kft. (OMV)","zip":"1044","county":"Budapest","city":"IV.","address":"1044, Budapest, Váci út 14-16","desc":"1 2310015","phone":""},{"c":"pick","id":"0000103376","group":"Relay\/Inmedio","lat":"47.494040","lon":"19.056350","name":"Inmedio-Városház u.","zip":"1052","county":"Budapest","city":"V.","address":"1052, Budapest, Városház utca 3-5.","desc":"Ferenciek tere és az Astoria között félúton","phone":""},{"c":"pick","id":"0000109625","group":"Független","lat":"47.512446","lon":"19.049260","name":"Snack Corner 0-24.","zip":"1055","county":"Budapest","city":"V.","address":"1055, Budapest, Szent István krt. 5.","desc":"csak készpénzes fizetés lehetséges!!   A 9-es buszmegállónál található az üzlet .","phone":""},{"c":"pick","id":"0000109412","group":"Corner ékszer","lat":"47.507042","lon":"19.055656","name":"CORNER Ékszer és Zálogház","zip":"1065","county":"Budapest","city":"VI.","address":"1065, Budapest, Podmaniczky utca 1","desc":"Csak Készpénzzel lehet fizetni!","phone":""},{"c":"pick","id":"0000109620","group":"Független","lat":"47.499125","lon":"19.077230","name":"WebPont Kft. \/lottózó\/","zip":"1074","county":"Budapest","city":"VII.","address":"1074, Budapest, Rákóczi út 82.","desc":"csak készpénzes fizetés lehetséges!","phone":""},{"c":"pick","id":"0000109629","group":"Független","lat":"47.502303","lon":"19.076835","name":"DrinkAir Terminal 1","zip":"1074","county":"Budapest","city":"VII.","address":"1074, Budapest, Rottenbiller utca 24","desc":"","phone":""},{"c":"pick","id":"0000104331","group":"MOL","lat":"47.486050","lon":"19.093160","name":"MOL 12476 Budapest","zip":"1089","county":"Budapest","city":"VIII.","address":"1089, Budapest, Golgota tér (VIII.)","desc":"0613230098","phone":""},{"c":"pick","id":"0000104375","group":"MOL","lat":"47.496020","lon":"19.108470","name":"MOL 12391 Budapest","zip":"1081","county":"Budapest","city":"VIII.","address":"1081, Budapest, Hős u. 9. (VIII.)","desc":"","phone":""},{"c":"pick","id":"0000104886","group":"OMV","lat":"47.500000","lon":"19.102100","name":"OMV-Kerepesi út 22.","zip":"1087","county":"Budapest","city":"VIII.","address":"1087, Budapest, Kerepesi út 22","desc":"","phone":""},{"c":"pick","id":"0000109469","group":"Független","lat":"47.499328","lon":"19.081046","name":"KERIM-CHANGE Kft Valuta váltó","zip":"1087","county":"Budapest","city":"VIII.","address":"1087, Budapest, Baross tér 6","desc":"Csak készpénzes fizetés lehetséges.","phone":""},{"c":"pick","id":"0000105860","group":"OMV","lat":"47.467920","lon":"19.103300","name":"OMV-Gyáli út","zip":"1097","county":"Budapest","city":"IX.","address":"1097, Budapest, Gyáli út 30","desc":"","phone":""},{"c":"pick","id":"0000107624","group":"OMV","lat":"47.442460","lon":"19.094110","name":"OMV-Soroksári út","zip":"1097","county":"Budapest","city":"IX.","address":"1097, Budapest, Soroksári út 166\/b","desc":"0612806364","phone":""},{"c":"pick","id":"0000109556","group":"Független","lat":"47.480512","lon":"19.073487","name":"Bestmarkt","zip":"1094","county":"Budapest","city":"IX.","address":"1094, Budapest, Ferenc tér 5","desc":"csak bankkártyás fizetés lehetséges!!","phone":""},{"c":"pick","id":"0000101164","group":"MOL","lat":"47.482550","lon":"19.124350","name":"MOL 12336 Budapest","zip":"1107","county":"Budapest","city":"X.","address":"1107, Budapest, Kőbányai út(X.)","desc":"","phone":""},{"c":"pick","id":"0000109517","group":"OMV","lat":"47.534713","lon":"19.102186","name":"Dorzol Petrol Kft.","zip":"1142","county":"Budapest","city":"XIV.","address":"1142, Budapest, Tengerszem utca 61-67","desc":"station.Budapest.Tengerszemutca@omv.com","phone":""},{"c":"pick","id":"0000109606","group":"Független","lat":"47.506957","lon":"19.144438","name":"Vackor Játék","zip":"1144","county":"Budapest","city":"XIV.","address":"1144, Budapest, Rákosfalva park 1-3","desc":"2024.02.23-án ZÁRVA.","phone":""},{"c":"pick","id":"0000109532","group":"Független","lat":"47.545958","lon":"19.136789","name":"Szani és Társai Kft. Delikát Diszko","zip":"1156","county":"Budapest","city":"XV.","address":"1156, Budapest, Páskomliget utca 26.","desc":"Csak készpénzes fizetés lehetséges!!","phone":""},{"c":"pick","id":"0000101131","group":"MOL","lat":"47.522170","lon":"19.185230","name":"MOL Töltőállomás - BP, Arany János u.","zip":"1165","county":"Budapest","city":"XVI.","address":"1165, Budapest, ARANY JÁNOS U. 106","desc":"","phone":""},{"c":"pick","id":"0000104869","group":"Független","lat":"47.531831","lon":"19.201749","name":"Lottó - Hírlap","zip":"1162","county":"Budapest","city":"XVI.","address":"1162, Budapest, Menyhért u.trafik 27,","desc":"","phone":""},{"c":"pick","id":"0000108660","group":"OMV","lat":"47.534930","lon":"19.180710","name":"OMV-Csömöri u.-Szlovák u. sarok","zip":"1162","county":"Budapest","city":"XVI.","address":"1162, Budapest, Csömöri u.-Szlovák u. sarok","desc":"","phone":""},{"c":"pick","id":"0000108778","group":"Független","lat":"47.516623","lon":"19.186416","name":"Anya és Fia Plusz Kft.\/Lottózó","zip":"1165","county":"Budapest","city":"XVI.","address":"1165, Budapest, Centenáriumi sétány 8.","desc":"Csak készpénzes fizetés lehetséges.   Pavilonsornál található.","phone":""},{"c":"pick","id":"0000109432","group":"Független","lat":"47.505742","lon":"19.173553","name":"Élelmiszer üzlet","zip":"1163","county":"Budapest","city":"XVI.","address":"1163, Budapest, Lándzsa u. 13","desc":"csak készpénzes fizetés lehetséges!","phone":""},{"c":"pick","id":"0000109559","group":"OMV","lat":"47.517700","lon":"19.214390","name":"Amizade Kft. (OMV)","zip":"1164","county":"Budapest","city":"XVI.","address":"1164, Budapest, Szabadföld út 1","desc":"","phone":""},{"c":"pick","id":"0000109577","group":"Független","lat":"47.511453","lon":"19.194570","name":"Semaphoras Ékszer","zip":"1165","county":"Budapest","city":"XVI.","address":"1165, Budapest, Pilóta utca 2","desc":"csak készpénzes fizetés lehetséges!","phone":""},{"c":"pick","id":"0000109473","group":"Független","lat":"47.453594","lon":"19.122740","name":"Léna BARF Állateledel és felszerelés","zip":"1192","county":"Budapest","city":"XIX.","address":"1192, Budapest, Thököly utca 23","desc":"Csak készpénzzel lehet fizetni az átadóponton  2023.08.13-21 között zárva","phone":""},{"c":"pick","id":"0000109524","group":"Független","lat":"47.429206","lon":"19.069906","name":"Aranyboa Kft. Óra-ékszer Csepel Pláza","zip":"1214","county":"Budapest","city":"XXI.","address":"1214, Budapest, II. Rákóczi Ferenc út 154-170. Csep","desc":"csak KÉSZPÉNZES fizetés lehetséges!! Első emeletre költözött a H & M és a Kik közé a 123-as üzletbe","phone":""},{"c":"pick","id":"0000109565","group":"Független","lat":"47.397700","lon":"19.047519","name":"Csomagcentrum","zip":"1214","county":"Budapest","city":"XXI.","address":"1214, Budapest, II.Rákóczi Ferenc utca 289-295","desc":"","phone":""},{"c":"pick","id":"0000106825","group":"OMV","lat":"47.423600","lon":"19.159400","name":"OMV-Nagykörösi út 349.","zip":"1239","county":"Budapest","city":"XXIII.","address":"1239, Budapest, Nagykörösi út 349","desc":"","phone":""},{"c":"pick","id":"0000106831","group":"Relay\/Inmedio","lat":"47.419190","lon":"19.157750","name":"Inmedio-Soroksár Auchan","zip":"1239","county":"Budapest","city":"XXIII.","address":"1239, Budapest, Auchan Soroksár, Bevásárló utca 2.","desc":"Az M5-ös bevezető szakaszán található Auchanban. A 3-4-5 kasszákkal szemben található.","phone":""},{"c":"pick","id":"0000628499","group":"Coop","lat":"47.794420","lon":"20.001110","name":"30.sz. COOP ABC","zip":"3261","county":"Heves megye","city":"Abasár","address":"3261, Abasár, Fő tér 51","desc":"","phone":""},{"c":"pick","id":"0000417115","group":"Független","lat":"47.185419","lon":"20.035007","name":"Burkoloutlet","zip":"2740","county":"Pest megye","city":"Abony","address":"2740, Abony, Mária Terézia utca 33.","desc":"12.23-12.31-ig zárva  Nyitás: 2024.01.02. 8 óra  Csak készpénzes fizetés lehetséges!!","phone":""},{"c":"pick","id":"0000831376","group":"MOL","lat":"47.112210","lon":"17.555330","name":"MOL 25524 Ajka","zip":"8400","county":"Veszprém megye","city":"Ajka","address":"8400, Ajka, Fő út \/Aranyvölgyi utca\/","desc":"","phone":""},{"c":"pick","id":"0000835869","group":"OMV","lat":"47.103444","lon":"17.554421","name":"Zsoldos 2001 Bt. ( OMV)","zip":"8400","county":"Veszprém megye","city":"Ajka","address":"8400, Ajka, Petőfi út (1433 hrsz.)","desc":"","phone":""},{"c":"pick","id":"0000535963","group":"Független","lat":"46.338191","lon":"20.210518","name":"Viola Kisbolt","zip":"6750","county":"Csongrád megye","city":"Algyő","address":"6750, Algyő, Vásárhelyi u. 5","desc":"csak készpénzes fizetés lehetséges!!","phone":""},{"c":"pick","id":"0000415900","group":"OMV","lat":"47.306090","lon":"19.178350","name":"OMV-Alsónémedi","zip":"2351","county":"Pest megye","city":"Alsónémedi","address":"2351, Alsónémedi, 5.sz Főút 2553 hrsz","desc":"retail.hu.2039@omv.com","phone":""},{"c":"pick","id":"0000613702","group":"Coop","lat":"48.072120","lon":"20.878220","name":"401. SZ. ABC","zip":"3571","county":"Borsod-Abaúj-Zemplén megye","city":"Alsózsolca","address":"3571, Alsózsolca, Kossuth út 132.","desc":"","phone":""},{"c":"pick","id":"0000533420","group":"Coop","lat":"46.174570","lon":"20.577790","name":"Apátfalva 4300.sz.Coop Abc HUNOR","zip":"6931","county":"Csongrád megye","city":"Apátfalva","address":"6931, Apátfalva, Széchenyi 108.","desc":"","phone":""},{"c":"pick","id":"0000611792","group":"Coop","lat":"48.176400","lon":"20.258890","name":"530.sz. Maxi-COOP ABC","zip":"3663","county":"Borsod-Abaúj-Zemplén megye","city":"Arló","address":"3663, Arló, Ady Endre út 174\/A.","desc":"","phone":""},{"c":"pick","id":"0000613824","group":"Coop","lat":"48.129630","lon":"20.859100","name":"407.SZ.ABC","zip":"3713","county":"Borsod-Abaúj-Zemplén megye","city":"Arnót","address":"3713, Arnót, Alkotmány u. 2.","desc":"max407-00.unio-coo@unioboltok.t-online.hu","phone":""},{"c":"pick","id":"0000535813","group":"Coop","lat":"46.200670","lon":"19.784140","name":"Ásotthalom Hunor Coop 501.sz. ABC","zip":"6783","county":"Csongrád megye","city":"Ásotthalom","address":"6783, Ásotthalom, Királyhalmi u.44.","desc":"","phone":""},{"c":"pick","id":"0000418010","group":"MOL","lat":"47.651770","lon":"19.474390","name":"Aszód MOL 18247","zip":"2170","county":"Pest megye","city":"Aszód","address":"2170, Aszód, Pesti út 3.","desc":"Tudja Edina 20\/4642111","phone":""},{"c":"pick","id":"0000445958","group":"OMV","lat":"47.680700","lon":"17.975200","name":"Green Shop Kft OMV Töltőállomás","zip":"2943","county":"Komárom-Esztergom megye","city":"Bábolna","address":"2943, Bábolna, M1 Autópálya 93.kmsz (Bal oldal)","desc":"","phone":""},{"c":"pick","id":"0000445968","group":"OMV","lat":"47.682200","lon":"17.979500","name":"OMV-Bábolna M1 Bécs felé","zip":"2943","county":"Komárom-Esztergom megye","city":"Bábolna","address":"2943, Bábolna, M1 93 km Jobb oldal","desc":"","phone":""},{"c":"pick","id":"0000417161","group":"OMV","lat":"47.637560","lon":"19.473920","name":"Tóthi Lótusz Kft.","zip":"2191","county":"Pest megye","city":"Bag","address":"2191, Bag, Dózsa György út 2","desc":"","phone":""},{"c":"pick","id":"0000516834","group":"Független","lat":"46.191046","lon":"18.942246","name":"Andriott Kft - Sirály ABC","zip":"6500","county":"Bács-Kiskun megye","city":"Baja","address":"6500, Baja, Sirály utca 4.","desc":"","phone":""},{"c":"pick","id":"0000733528","group":"MOL","lat":"46.782940","lon":"17.672150","name":"MOL 33036 Balatonlelle","zip":"8638","county":"Somogy megye","city":"Balatonlelle","address":"8638, Balatonlelle, Rákóczi Ferenc u. 1.","desc":"","phone":""},{"c":"pick","id":"0000727307","group":"OMV","lat":"46.189300","lon":"18.691400","name":"OMV-Bátaszék M6 Bal","zip":"7140","county":"Tolna megye","city":"Bátaszék","address":"7140, Bátaszék, M6 autópálya bal","desc":"0674712063-bolt száma","phone":""},{"c":"pick","id":"0000727308","group":"OMV","lat":"46.194000","lon":"18.694100","name":"OMV-Bátaszék M6 Jobb","zip":"7140","county":"Tolna megye","city":"Bátaszék","address":"7140, Bátaszék, M6 autópálya jobb","desc":"","phone":""},{"c":"pick","id":"0000727413","group":"Coop","lat":"46.189870","lon":"18.725100","name":"Bátaszék 348. sz. Coop ABC","zip":"7140","county":"Tolna megye","city":"Bátaszék","address":"7140, Bátaszék, Budai út 22","desc":"","phone":""},{"c":"pick","id":"0000525573","group":"Relay\/Inmedio","lat":"46.772390","lon":"21.131950","name":"Inmedio-Békés","zip":"5630","county":"Békés megye","city":"Békés","address":"5630, Békés, Széchenyi tér 2.","desc":"Főtéren a híd lábánál, 2022. 06. 03.-04.-e péntek, szombat zárva lesz.  Első nyitvatartási nap: 2022. 06. 07. kedd","phone":""},{"c":"pick","id":"0000525699","group":"OMV","lat":"46.773280","lon":"21.124680","name":"OMV-Békés Kossuth L. u.","zip":"5630","county":"Békés megye","city":"Békés","address":"5630, Békés, Kossuth L. u. 4.","desc":"Január 20-án pénteken Békésen egy napos szünet lesz, teljesen zárva lesz az állomás kapcsolószekrénycsere miat  t   kút telsz 06709453046","phone":""},{"c":"pick","id":"0000524243","group":"MOL","lat":"46.681262","lon":"21.113043","name":"MOL 4135301","zip":"5600","county":"Békés megye","city":"Békéscsaba","address":"5600, Békéscsaba, Sportcsarnok Gyulai út","desc":"pshu341353@ris.mol.hu ","phone":""},{"c":"pick","id":"0000525800","group":"OMV","lat":"46.684100","lon":"21.059100","name":"OMV - Áber Oil Kft.","zip":"5600","county":"Békés megye","city":"Békéscsaba","address":"5600, Békéscsaba, Szarvasi út 103.","desc":"","phone":""},{"c":"pick","id":"0000525884","group":"OMV","lat":"46.683800","lon":"21.086400","name":"OMV - Brendon-Petrol Kft","zip":"5600","county":"Békés megye","city":"Békéscsaba","address":"5600, Békéscsaba, Szarvasi  út 16-18","desc":"","phone":""},{"c":"pick","id":"0000525885","group":"Relay\/Inmedio","lat":"46.671060","lon":"21.083770","name":"Relay 1813 Békéscsaba MÁV","zip":"5600","county":"Békés megye","city":"Békéscsaba","address":"5600, Békéscsaba, Andrássy út 58.","desc":"","phone":""},{"c":"pick","id":"0000525891","group":"Független","lat":"46.675677","lon":"21.085849","name":"Békéscsaba Depó\/ Game Invest Kft","zip":"5600","county":"Békés megye","city":"Békéscsaba","address":"5600, Békéscsaba, Őr  u 1","desc":"","phone":""},{"c":"pick","id":"0000525944","group":"Független","lat":"46.871780","lon":"20.483630","name":"Pergamen Papírbolt és Lottózó","zip":"5561","county":"Békés megye","city":"Békésszentandrás","address":"5561, Békésszentandrás, Szent László u. 22.","desc":"Csak készpénzes fizteés lehetséges !   Hétfő-Péntek: 11:30-13:30 között zárva","phone":""},{"c":"pick","id":"0000912154","group":"MOL","lat":"47.235290","lon":"21.530950","name":"MOL 53150 Berettyóújfalu","zip":"4100","county":"Hajdú-Bihar megye","city":"Berettyóújfalu","address":"4100, Berettyóújfalu, 42.sz. fkl. út","desc":"","phone":""},{"c":"pick","id":"0000417184","group":"Független","lat":"47.460162","lon":"18.811556","name":"Multipont","zip":"2051","county":"Pest megye","city":"Biatorbágy","address":"2051, Biatorbágy, Nagy utca 11","desc":"","phone":""},{"c":"pick","id":"0000425201","group":"Független","lat":"47.480371","lon":"18.644826","name":"Coop Űrhajós ABC","zip":"2060","county":"Fejér megye","city":"Bicske","address":"2060, Bicske, Űrhajós u. 3","desc":"","phone":""},{"c":"pick","id":"0000914413","group":"MOL","lat":"47.130120","lon":"21.721940","name":"Biharkeresztes MOL - Töltőállomás","zip":"4110","county":"Hajdú-Bihar megye","city":"Biharkeresztes","address":"4110, Biharkeresztes, 42-es sz. régi fkl.út","desc":"","phone":""},{"c":"pick","id":"0000713941","group":"Független","lat":"45.970183","lon":"18.513083","name":"Spricc Szódaüzem","zip":"7754","county":"Baranya megye","city":"Bóly","address":"7754, Bóly, Szabadság utca 5.","desc":"hétfőtől-péntekig 12:00-13:00 között zárva","phone":""},{"c":"pick","id":"0000611814","group":"Coop","lat":"48.122430","lon":"20.245410","name":"506.SZ. ABC","zip":"3671","county":"Borsod-Abaúj-Zemplén megye","city":"Borsodnádasd","address":"3671, Borsodnádasd, Kővágó u. 1","desc":"","phone":""},{"c":"pick","id":"0000613726","group":"Coop","lat":"48.039540","lon":"20.966340","name":"625. ABC","zip":"3574","county":"Borsod-Abaúj-Zemplén megye","city":"Bőcs","address":"3574, Bőcs, Rákóczi út 39.","desc":"","phone":""},{"c":"pick","id":"0000416880","group":"Független","lat":"47.514720","lon":"18.934121","name":"Ergoline Budakeszi Szolárium Stúdió","zip":"2092","county":"Pest megye","city":"Budakeszi","address":"2092, Budakeszi, Fő út 80","desc":"Csak Készpénzes fizetés lehetséges!","phone":""},{"c":"pick","id":"0000418040","group":"MOL","lat":"47.512910","lon":"18.925800","name":"Budakeszi  MOL 17521","zip":"2092","county":"Pest megye","city":"Budakeszi","address":"2092, Budakeszi, Temető","desc":"","phone":""},{"c":"pick","id":"0000410801","group":"Relay\/Inmedio","lat":"47.454380","lon":"18.942840","name":"Inmedio-Budaörs Auchan","zip":"2040","county":"Pest megye","city":"Budaörs","address":"2040, Budaörs, Auchan, Sport utca 2.","desc":"Auchan kasszasorral szemben 19-20. kassza, modell bolt mellett","phone":""},{"c":"pick","id":"0000410821","group":"Relay\/Inmedio","lat":"47.450250","lon":"18.963230","name":"Inmedio-Budaörs TESCO","zip":"2040","county":"Pest megye","city":"Budaörs","address":"2040, Budaörs, Kinizsi út 1.","desc":"Tesco jobb oldali főbejárat.  ","phone":""},{"c":"pick","id":"0000416829","group":"MOL","lat":"47.452878","lon":"18.958198","name":"MOL 63300 Budaörs","zip":"2040","county":"Pest megye","city":"Budaörs","address":"2040, Budaörs, M7 Észak Garibaldi u 2","desc":"","phone":""},{"c":"pick","id":"0000417138","group":"Független","lat":"47.225319","lon":"19.149620","name":"Margit Papír 2009 Kft","zip":"2347","county":"Pest megye","city":"Bugyi","address":"2347, Bugyi, Kossuth Lajos u. 21","desc":"","phone":""},{"c":"pick","id":"0000820828","group":"Coop","lat":"47.387160","lon":"16.748330","name":"Coop Bük","zip":"9737","county":"Vas megye","city":"Bük","address":"9737, Bük, Petőfi Sándor utca 9","desc":"","phone":""},{"c":"pick","id":"0000613212","group":"Coop","lat":"47.936830","lon":"20.808170","name":"435. SZ. ABC","zip":"3554","county":"Borsod-Abaúj-Zemplén megye","city":"Bükkaranyos","address":"3554, Bükkaranyos, Petőfi u. 102","desc":"","phone":""},{"c":"pick","id":"0000823570","group":"Független","lat":"47.251898","lon":"17.152086","name":"Fa-Gyula Kft.","zip":"9500","county":"Vas megye","city":"Celldömölk","address":"9500, Celldömölk, Sági út 47.","desc":"csak készpénzes fieztés lehetséges!!  12:00-13:00 között zárva  2024.01.27 (szombat) és 2024.01.29 (hétfő) üzletünk zárva tart!","phone":""},{"c":"pick","id":"0000533428","group":"Coop","lat":"46.241760","lon":"20.725260","name":"CSanádpalota 4800.sz.Coop Abc HUNOR","zip":"6913","county":"Csongrád megye","city":"Csanádpalota","address":"6913, Csanádpalota, Kálmány  Lajos u. 2","desc":"","phone":""},{"c":"pick","id":"0000924250","group":"Coop","lat":"47.835048","lon":"22.681844","name":"1. sz. ABC","zip":"4765","county":"Szabolcs-Szatmár-Bereg megye","city":"Csenger","address":"4765, Csenger, Rákóczi 5","desc":"","phone":""},{"c":"pick","id":"0000820812","group":"Coop","lat":"47.402900","lon":"16.712390","name":"MOL Csepreg","zip":"9735","county":"Vas megye","city":"Csepreg","address":"9735, Csepreg, Rákóczi u.","desc":"","phone":""},{"c":"pick","id":"0000533387","group":"Relay\/Inmedio","lat":"46.710450","lon":"20.149530","name":"Inmedio-Csongrád Fő u.","zip":"6640","county":"Csongrád megye","city":"Csongrád","address":"6640, Csongrád, Fő utca 2-4.","desc":"Erzsébet szállóval szemben","phone":""},{"c":"pick","id":"0000410807","group":"Relay\/Inmedio","lat":"47.540190","lon":"19.243190","name":"Inmedio-Csömör Auchan","zip":"2141","county":"Pest megye","city":"Csömör","address":"2141, Csömör, Auchan, Határ út 6.","desc":"21.22.23.számú kasszákkal szemben.","phone":""},{"c":"pick","id":"0000727464","group":"Coop","lat":"46.493830","lon":"18.189220","name":"259. sz. COOP ABC(727464)","zip":"7211","county":"Tolna megye","city":"Dalmand","address":"7211, Dalmand, Felszabadulás u. 12","desc":"","phone":""},{"c":"pick","id":"0000911011","group":"Relay\/Inmedio","lat":"47.519350","lon":"21.628220","name":"Relay-Debrecen MÁV I.","zip":"4025","county":"Hajdú-Bihar megye","city":"Debrecen","address":"4025, Debrecen, MÁV pályaudvar, Petőfi tér 12.","desc":"Indulási oldal, bejáratnál jobbra","phone":""},{"c":"pick","id":"0000911189","group":"Relay\/Inmedio","lat":"47.519470","lon":"21.628440","name":"Relay-Debrecen Máv II.","zip":"4025","county":"Hajdú-Bihar megye","city":"Debrecen","address":"4025, Debrecen, Máv Állomás, Petőfi tér 12.","desc":"Máv érkezési oldal","phone":""},{"c":"pick","id":"0000911190","group":"Relay\/Inmedio","lat":"47.539580","lon":"21.580650","name":"Inmedio-Debrecen Auchan","zip":"4031","county":"Hajdú-Bihar megye","city":"Debrecen","address":"4031, Debrecen, Kishatár utca 7.","desc":"Főbejárat,bal oldalon második üzlet,postával majdnem szemben","phone":""},{"c":"pick","id":"0000911197","group":"Relay\/Inmedio","lat":"47.536680","lon":"21.637250","name":"Inmedio-Debrecen Csapó u.","zip":"4029","county":"Hajdú-Bihar megye","city":"Debrecen","address":"4029, Debrecen, Csapó utca 100.","desc":"Tíz emeletes lakótelep utcára nyílik.","phone":""},{"c":"pick","id":"0000911198","group":"Relay\/Inmedio","lat":"47.529830","lon":"21.610370","name":"Inmedio-Debrecen TESCO","zip":"4031","county":"Hajdú-Bihar megye","city":"Debrecen","address":"4031, Debrecen, Kishegyesi út 1-11.","desc":"23 kasszával szemben","phone":""},{"c":"pick","id":"0000912148","group":"MOL","lat":"47.551150","lon":"21.663830","name":"MOL 54068 Debrecen","zip":"4001","county":"Hajdú-Bihar megye","city":"Debrecen","address":"4001, Debrecen, Sámsoni út","desc":"","phone":""},{"c":"pick","id":"0000912149","group":"MOL","lat":"47.513660","lon":"21.629400","name":"MOL 54046 Debrecen","zip":"4030","county":"Hajdú-Bihar megye","city":"Debrecen","address":"4030, Debrecen, Mikepércsi út I. (kimenő)","desc":"","phone":""},{"c":"pick","id":"0000913718","group":"OMV","lat":"47.515900","lon":"21.605300","name":"OMV-Debrecen István u.","zip":"4031","county":"Hajdú-Bihar megye","city":"Debrecen","address":"4031, Debrecen, István u. 137.","desc":"","phone":""},{"c":"pick","id":"0000914042","group":"Relay\/Inmedio","lat":"47.531550","lon":"21.627280","name":"Inmedio-Debrecen Fórum","zip":"4026","county":"Hajdú-Bihar megye","city":"Debrecen","address":"4026, Debrecen, Csapó utca 30.","desc":"Fórum üzletház első emelet Sparral szemben kávézó mellett.","phone":""},{"c":"pick","id":"0000914135","group":"Relay\/Inmedio","lat":"47.532070","lon":"21.642820","name":"2171 Inmedio, Debrecen Víztorony","zip":"4027","county":"Hajdú-Bihar megye","city":"Debrecen","address":"4027, Debrecen, Víztorony utca 13.","desc":"","phone":""},{"c":"pick","id":"0000914535","group":"Relay\/Inmedio","lat":"47.529160","lon":"21.627760","name":"Inmedio Debrecen, Batthyány u.","zip":"4024","county":"Hajdú-Bihar megye","city":"Debrecen","address":"4024, Debrecen, Batthyány utca 1.","desc":"","phone":""},{"c":"pick","id":"0000914606","group":"Független","lat":"47.538733","lon":"21.585775","name":"Ria-sped Kft","zip":"4031","county":"Hajdú-Bihar megye","city":"Debrecen","address":"4031, Debrecen, Vadvirág u. 19","desc":"csak készpénzes fizetés lehetséges!!  06:00-09:00;   15:00-18:00ig","phone":""},{"c":"pick","id":"0000914651","group":"Patronbolt.hu","lat":"47.534163","lon":"21.620543","name":"Patronbolt.hu Debrecen","zip":"4026","county":"Hajdú-Bihar megye","city":"Debrecen","address":"4026, Debrecen, Bethlen utca 34","desc":"","phone":""},{"c":"pick","id":"0000914685","group":"Független","lat":"47.600284","lon":"21.651652","name":"Pallagbet Lottozó","zip":"4002","county":"Hajdú-Bihar megye","city":"Debrecen","address":"4002, Debrecen, Mezőgazdász utca 70","desc":"","phone":""},{"c":"pick","id":"0000831445","group":"MOL","lat":"47.108710","lon":"17.438110","name":"MOL Devecser Pápai u.","zip":"8460","county":"Veszprém megye","city":"Devecser","address":"8460, Devecser, Devecser,Pápai u.","desc":"","phone":""},{"c":"pick","id":"0000525694","group":"Független","lat":"46.735066","lon":"21.242379","name":"BALOGH KFT. CBA Csemege","zip":"5624","county":"Békés megye","city":"Doboz","address":"5624, Doboz, Nagy u 4","desc":"","phone":""},{"c":"pick","id":"0000727463","group":"Coop","lat":"46.382740","lon":"18.161450","name":"205. sz. COOP ABC(727463)","zip":"7200","county":"Tolna megye","city":"Dombóvár","address":"7200, Dombóvár, VI. u. 21\/A","desc":"","phone":""},{"c":"pick","id":"0000727467","group":"Coop","lat":"46.375210","lon":"18.130030","name":"201. sz. Napsugár COOP Szupermarket","zip":"7200","county":"Tolna megye","city":"Dombóvár","address":"7200, Dombóvár, Hunyadi tér 2","desc":"","phone":""},{"c":"pick","id":"0000628502","group":"Coop","lat":"47.828370","lon":"20.119230","name":"38.sz. COOP ABC","zip":"3263","county":"Heves megye","city":"Domoszló","address":"3263, Domoszló, Deák tér 7","desc":"","phone":""},{"c":"pick","id":"0000442879","group":"MOL","lat":"47.724160","lon":"18.719840","name":"MOL 23027 Dorog","zip":"2510","county":"Komárom-Esztergom megye","city":"Dorog","address":"2510, Dorog, Bécsi út","desc":"","phone":""},{"c":"pick","id":"0000415326","group":"Független","lat":"47.097875","lon":"19.008262","name":"Dobos ABC \/ Dömsöd\/Dobos György","zip":"2344","county":"Pest megye","city":"Dömsöd","address":"2344, Dömsöd, Szabadság 21","desc":"Csak készpénzes fizetés lehetséges","phone":""},{"c":"pick","id":"0000726986","group":"MOL","lat":"46.806200","lon":"18.916780","name":"MOL 2000 Dunaföldvár","zip":"7020","county":"Tolna megye","city":"Dunaföldvár","address":"7020, Dunaföldvár, D.földvár 6-os út","desc":"","phone":""},{"c":"pick","id":"0000412767","group":"OMV","lat":"47.346500","lon":"19.118000","name":"OMV-Dunaharaszti","zip":"2330","county":"Pest megye","city":"Dunaharaszti","address":"2330, Dunaharaszti, OMV benzinkút 51-es Főút","desc":"","phone":""},{"c":"pick","id":"0000417093","group":"Független","lat":"47.626078","lon":"19.124472","name":"Elektrosziget Plusz Kft.","zip":"2120","county":"Pest megye","city":"Dunakeszi","address":"2120, Dunakeszi, Fő út 1","desc":"Dunakeszi, Fő út tel : 70\/3427969    csak KÉSZPÉNZES fizetés lehetséges!!! 2024.01.04-én nyitnak.","phone":""},{"c":"pick","id":"0000424849","group":"OMV","lat":"46.964200","lon":"18.893000","name":"OMV-Dunaújváros M6 Bal","zip":"2400","county":"Fejér megye","city":"Dunaújváros","address":"2400, Dunaújváros, 70+100 (m) km. Pihenő bal oldala","desc":"","phone":""},{"c":"pick","id":"0000424850","group":"OMV","lat":"46.964230","lon":"18.890710","name":"OMV-Dunaújváros M6 Jobb","zip":"2400","county":"Fejér megye","city":"Dunaújváros","address":"2400, Dunaújváros, 70+100 (m) km. Pihenő jobb oldala","desc":"","phone":""},{"c":"pick","id":"0000914670","group":"Független","lat":"47.469173","lon":"21.491404","name":"Frakk Kisállat-Falatozó","zip":"4211","county":"Hajdú-Bihar megye","city":"Ebes","address":"4211, Ebes, Rákóczi u. 6. 1 üzlet","desc":"05.05-én technikai okok miatt zárva","phone":""},{"c":"pick","id":"0000613981","group":"MOL","lat":"48.290700","lon":"20.721780","name":"MOL 51391 Edelény","zip":"3780","county":"Borsod-Abaúj-Zemplén megye","city":"Edelény","address":"3780, Edelény, 27.sz. fkl. út","desc":"","phone":""},{"c":"pick","id":"0000614045","group":"Coop","lat":"48.296330","lon":"20.743650","name":"540. sz. Maxi Coop","zip":"3780","county":"Borsod-Abaúj-Zemplén megye","city":"Edelény","address":"3780, Edelény, Borsodi út 11","desc":"","phone":""},{"c":"pick","id":"0000628339","group":"Relay\/Inmedio","lat":"47.903190","lon":"20.373250","name":"1Minute-Eger, Széchenyi út","zip":"3300","county":"Heves megye","city":"Eger","address":"3300, Eger, Széchenyi út 20.","desc":"Városközpont, sétáló utca, posta mellett.","phone":""},{"c":"pick","id":"0000628995","group":"MOL","lat":"47.914500","lon":"20.369450","name":"MOL 55016","zip":"3300","county":"Heves megye","city":"Eger","address":"3300, Eger, KÖVÁGÓ TÉR \/ MOL KÚT\/","desc":"","phone":""},{"c":"pick","id":"0000629392","group":"OMV","lat":"47.876200","lon":"20.382000","name":"OMV-Eger Mátyás király út 134.","zip":"3300","county":"Heves megye","city":"Eger","address":"3300, Eger, Mátyás Király út 134","desc":"","phone":""},{"c":"pick","id":"0000611396","group":"Coop","lat":"47.933820","lon":"20.814410","name":"720. sz. Maxi Coop","zip":"3432","county":"Borsod-Abaúj-Zemplén megye","city":"Emőd","address":"3432, Emőd, Vörösmarty út 4.","desc":"","phone":""},{"c":"pick","id":"0000612530","group":"Coop","lat":"48.332870","lon":"21.115820","name":"826.ABC","zip":"3860","county":"Borsod-Abaúj-Zemplén megye","city":"Encs","address":"3860, Encs, Petőfi u. 55-57","desc":"","phone":""},{"c":"pick","id":"0000614219","group":"Coop","lat":"48.334265","lon":"21.112650","name":"Encs 26\/3.sz Szupermarket","zip":"3860","county":"Borsod-Abaúj-Zemplén megye","city":"Encs","address":"3860, Encs, Petőfi u. 71-73","desc":"","phone":""},{"c":"pick","id":"0000417206","group":"Független","lat":"47.375758","lon":"18.932382","name":"Gigawood Kft.","zip":"2030","county":"Pest megye","city":"Érd","address":"2030, Érd, Elvira utca 33","desc":"Csak készpénzes fizetés lehetséges","phone":""},{"c":"pick","id":"0000417927","group":"Független","lat":"47.378322","lon":"18.923447","name":"Tudás Könyvkuckó és webáruház","zip":"2030","county":"Pest megye","city":"Érd","address":"2030, Érd, Budai u. 20","desc":"Központi gyógyszertár mellett. H-K-Sze-P 13:00-14:00-ig EBÉDIDŐ  09.21-09.24 között zárva!","phone":""},{"c":"pick","id":"0000416884","group":"Független","lat":"47.672594","lon":"19.311406","name":"Lottózó","zip":"2113","county":"Pest megye","city":"Erdőkertes","address":"2113, Erdőkertes, Báthory utca 1","desc":"Bejárat a Fő utca felől","phone":""},{"c":"pick","id":"0000419301","group":"Coop","lat":"47.666400","lon":"19.316540","name":"002. sz. COOP Mini \/ Gödöllő COOP","zip":"2113","county":"Pest megye","city":"Erdőkertes","address":"2113, Erdőkertes, Petőfi u. 32-34","desc":"","phone":""},{"c":"pick","id":"0000445792","group":"OMV","lat":"47.747000","lon":"18.736000","name":"OMV-Esztergom Dobogókői út","zip":"2500","county":"Komárom-Esztergom megye","city":"Esztergom","address":"2500, Esztergom, Dobogókői út - Kesztölci út sarok","desc":"","phone":""},{"c":"pick","id":"0000446045","group":"Független","lat":"","lon":"","name":"KBOX csomagpont","zip":"2500","county":"Komárom-Esztergom megye","city":"Esztergom","address":"2500, Esztergom, Bánomi lakótelep 3","desc":"készpénzes fizetés vagy átutalással történő utánvét kiegyenlítés lehetséges a ponton!!","phone":""},{"c":"pick","id":"0000727183","group":"Coop","lat":"46.463660","lon":"18.820570","name":"Fadd 42.sz önkiszolgáló","zip":"7133","county":"Tolna megye","city":"Fadd","address":"7133, Fadd, Mátyás király u. 39","desc":"","phone":""},{"c":"pick","id":"0000921025","group":"Relay\/Inmedio","lat":"47.989250","lon":"22.513610","name":"Inmedio-Fehérgyarmat Kossuth tér","zip":"4900","county":"Szabolcs-Szatmár-Bereg megye","city":"Fehérgyarmat","address":"4900, Fehérgyarmat, Kossuth tér 3-5.","desc":"Fő utca áruházzal szemben ÁFÉSZ üzletsor","phone":""},{"c":"pick","id":"0000612184","group":"Coop","lat":"48.101400","lon":"20.869240","name":"440. sz. ABC","zip":"3561","county":"Borsod-Abaúj-Zemplén megye","city":"Felsőzsolca","address":"3561, Felsőzsolca, Kőrösi Csoma Sándor 57-63","desc":"","phone":""},{"c":"pick","id":"0000410800","group":"Relay\/Inmedio","lat":"47.580980","lon":"19.161490","name":"Inmedio-Fót Auchan","zip":"2151","county":"Pest megye","city":"Fót","address":"2151, Fót, Fehérkő út 1.","desc":"A könyvesbolt mellett a középső kasszák felőli oldalon  ","phone":""},{"c":"pick","id":"0000416147","group":"MOL","lat":"47.614400","lon":"19.175350","name":"MOL Nyrt Töltőállomás - Fót","zip":"2151","county":"Pest megye","city":"Fót","address":"2151, Fót, Keleti Márton u.","desc":"","phone":""},{"c":"pick","id":"0000533421","group":"Coop","lat":"46.320300","lon":"20.491070","name":"Földeák 4400. Mini Coop Abc HUNOR","zip":"6922","county":"Csongrád megye","city":"Földeák","address":"6922, Földeák, Szent László tér 14.","desc":"","phone":""},{"c":"pick","id":"0000628020","group":"Coop","lat":"47.750380","lon":"20.416890","name":"Füzesabony 36.SZ. ABC","zip":"3390","county":"Heves megye","city":"Füzesabony","address":"3390, Füzesabony, Rákóczi út 87","desc":"","phone":""},{"c":"pick","id":"0000628314","group":"MOL","lat":"47.757740","lon":"20.418190","name":"MOL 55100 Füzesabony","zip":"3390","county":"Heves megye","city":"Füzesabony","address":"3390, Füzesabony, Maklári út","desc":"","phone":""},{"c":"pick","id":"0000425498","group":"Független","lat":"47.208294","lon":"18.629785","name":"Timba Ajándék és Reklámgyár","zip":"2483","county":"Fejér megye","city":"Gárdony","address":"2483, Gárdony, Szabadság út 1","desc":"csak készpénzes fizetés lehetséges!!","phone":""},{"c":"pick","id":"0000613784","group":"Coop","lat":"48.103300","lon":"20.965180","name":"602.sz. Maxi COOP ABC","zip":"3715","county":"Borsod-Abaúj-Zemplén megye","city":"Gesztely","address":"3715, Gesztely, Szabadság tér 7.","desc":"max602-00.unio-coo@unioboltok.t-online.hu","phone":""},{"c":"pick","id":"0000614222","group":"Coop","lat":"48.472200","lon":"21.277510","name":"Gönc 61.sz Maxi Coop Abc","zip":"3895","county":"Borsod-Abaúj-Zemplén megye","city":"Gönc","address":"3895, Gönc, Kossuth u. 69","desc":"","phone":""},{"c":"pick","id":"0000417040","group":"Független","lat":"47.387930","lon":"19.205959","name":"Axol.hu Kft. \/ Kreatív-Papírbolt","zip":"2360","county":"Pest megye","city":"Gyál","address":"2360, Gyál, Kolozsvári u. 3","desc":"Kizárólag 16:00-ig adnak ki csomagot!  csak készpénzes fizetés van!","phone":""},{"c":"pick","id":"0000810037","group":"MOL","lat":"47.692120","lon":"17.653130","name":"MOL 22079 Győr","zip":"9001","county":"Győr-Moson-Sopron megye","city":"Győr","address":"9001, Győr, Budai út (Mártírok u.)","desc":"02.29-én leltár miatt zárva","phone":""},{"c":"pick","id":"0000813385","group":"Független","lat":"47.638916","lon":"17.607774","name":"ZeZo Papír Írószer","zip":"9012","county":"Győr-Moson-Sopron megye","city":"Győr","address":"9012, Győr,  Vadvirág utca 17\/a","desc":"12:00-13:00 között zárva      2023.12.24,25,26,30-án zárva tart!     csak készpénzes fizetés lehetséges!!","phone":""},{"c":"pick","id":"0000813377","group":"Független","lat":"47.558936","lon":"17.569921","name":"Kingabi Szemere Betéti Társaság","zip":"9121","county":"Győr-Moson-Sopron megye","city":"Győrszemere","address":"9121, Győrszemere, Győri út 138","desc":" csak készpénzes fizetés lehetséges!!   H-P: 9-12 között és 15-18 között vannak nyitva. 12 és 15 óra között ZÁRVA tartanak.   Szombaton 9-14ig vannak nyitva.   Vasárnap Zárva.","phone":""},{"c":"pick","id":"0000524947","group":"REÁL","lat":"46.655261","lon":"21.273320","name":"203. Budrió ABC","zip":"5700","county":"Békés megye","city":"Gyula","address":"5700, Gyula, Béke sgt. 71.","desc":"","phone":""},{"c":"pick","id":"0000525173","group":"Relay\/Inmedio","lat":"46.646260","lon":"21.272350","name":"Inmedio-Gyula Béke sugárút","zip":"5700","county":"Békés megye","city":"Gyula","address":"5700, Gyula, Béke sugárút 12.","desc":"Városközpont, sétáló utca. Vártól 100 m.","phone":""},{"c":"pick","id":"0000914682","group":"Független","lat":"47.672635","lon":"21.513739","name":"Korpona-Korzó Papír és Porcelán Bol","zip":"4220","county":"Hajdú-Bihar megye","city":"Hajdúböszörmény","address":"4220, Hajdúböszörmény, Korpona utca 6\/a","desc":"csak készpénzes fizetés lehetséges!","phone":""},{"c":"pick","id":"0000914418","group":"Relay\/Inmedio","lat":"47.683180","lon":"21.668790","name":"Inmedio-Hajdúhadház","zip":"4242","county":"Hajdú-Bihar megye","city":"Hajdúhadház","address":"4242, Hajdúhadház, Dr. Földi János utca 3","desc":"Városháza közelében.","phone":""},{"c":"pick","id":"0000912272","group":"OMV","lat":"47.840800","lon":"21.442100","name":"OMV-Hajdúnánás Dorogi út","zip":"4080","county":"Hajdú-Bihar megye","city":"Hajdúnánás","address":"4080, Hajdúnánás, Dorogi út HRSZ: 4275","desc":"","phone":""},{"c":"pick","id":"0000912151","group":"MOL","lat":"47.451650","lon":"21.410160","name":"MOL 53087 Hajdúszoboszló","zip":"4200","county":"Hajdú-Bihar megye","city":"Hajdúszoboszló","address":"4200, Hajdúszoboszló, Debreceni út","desc":"","phone":""},{"c":"pick","id":"0000914251","group":"OMV","lat":"47.452400","lon":"21.412790","name":"OMV-Hajdúszoboszló Hóvirág u.","zip":"4200","county":"Hajdú-Bihar megye","city":"Hajdúszoboszló","address":"4200, Hajdúszoboszló, Hóvirág u 2","desc":"","phone":""},{"c":"pick","id":"0000914664","group":"Független","lat":"47.445124","lon":"21.391445","name":"Tiszta Forrás Divat","zip":"4200","county":"Hajdú-Bihar megye","city":"Hajdúszoboszló","address":"4200, Hajdúszoboszló, Hősök tere 9-11","desc":"","phone":""},{"c":"pick","id":"0000614223","group":"Coop","lat":"48.244640","lon":"21.000020","name":"Halmaj 66.sz Maxi Coop Abc","zip":"3842","county":"Borsod-Abaúj-Zemplén megye","city":"Halmaj","address":"3842, Halmaj, Petőfi út 5","desc":"","phone":""},{"c":"pick","id":"0000836449","group":"Független","lat":"47.185373","lon":"17.811725","name":"HÁRS ABC","zip":"8442","county":"Veszprém megye","city":"Hárskút","address":"8442, Hárskút, Fő utca 8","desc":"","phone":""},{"c":"pick","id":"0000620105","group":"MOL","lat":"47.662550","lon":"19.647080","name":"MOL 55049 Hatvan","zip":"3000","county":"Heves megye","city":"Hatvan","address":"3000, Hatvan, RÁKÓCZI ÚT","desc":"","phone":""},{"c":"pick","id":"0000828175","group":"OMV","lat":"47.361000","lon":"16.897900","name":"OMV-Hegyfalu","zip":"9631","county":"Vas megye","city":"Hegyfalu","address":"9631, Hegyfalu, 84\/86 főutak kereszteződése","desc":"","phone":""},{"c":"pick","id":"0000748133","group":"MOL","lat":"46.793940","lon":"17.203540","name":"MOL Töltöállomás - Hévíz","zip":"8380","county":"Zala megye","city":"Hévíz","address":"8380, Hévíz, Keszthelyi u. 81.","desc":"","phone":""},{"c":"pick","id":"0000533115","group":"MOL","lat":"46.411550","lon":"20.321940","name":"MOL 42031 Hódmezővásárhely","zip":"6800","county":"Csongrád megye","city":"Hódmezővásárhely","address":"6800, Hódmezővásárhely, Tóalj út","desc":"","phone":""},{"c":"pick","id":"0000535729","group":"Coop","lat":"46.415250","lon":"20.317790","name":"Hódmezővásárhely 140.sz Coop Abc\/Hunor Coop Zrt","zip":"6800","county":"Csongrád megye","city":"Hódmezővásárhely","address":"6800, Hódmezővásárhely, Dr Rapcsák András u 1","desc":"","phone":""},{"c":"pick","id":"0000417386","group":"OMV","lat":"47.276000","lon":"19.323610","name":"OMV-Inárcs M5 autópálya Jobb","zip":"2365","county":"Pest megye","city":"Inárcs","address":"2365, Inárcs, M5 autópálya 35 kmsz jobb","desc":"+36 29 371 095","phone":""},{"c":"pick","id":"0000417387","group":"OMV","lat":"47.273800","lon":"19.329800","name":"OMV-Inárcs M5 autópálya Bal","zip":"2365","county":"Pest megye","city":"Inárcs","address":"2365, Inárcs, M5 autópálya 35. kmsz bal","desc":"Kecskemétről Pest felé vezető úton található a PPP","phone":""},{"c":"pick","id":"0000813126","group":"Coop","lat":"47.441430","lon":"16.909590","name":"12.sz. Coop Iván","zip":"9374","county":"Győr-Moson-Sopron megye","city":"Iván","address":"9374, Iván, Rákóczi sor 3","desc":"","phone":""},{"c":"pick","id":"0000614260","group":"Coop","lat":"48.305230","lon":"20.654390","name":"550.sz Coop\/Izsófalva","zip":"3741","county":"Borsod-Abaúj-Zemplén megye","city":"Izsófalva","address":"3741, Izsófalva, Izsó Miklós u. 121","desc":"","phone":""},{"c":"pick","id":"0000813153","group":"OMV","lat":"47.795750","lon":"17.148990","name":"OMV - Hédl Shop Szolg.és kereskedelmi kft","zip":"9241","county":"Győr-Moson-Sopron megye","city":"Jánossomorja","address":"9241, Jánossomorja, 0168\/364 hrsz. 84 sz. főút","desc":"706762387 -retail.hu.1509@omv.com","phone":""},{"c":"pick","id":"0000937441","group":"Relay\/Inmedio","lat":"47.294550","lon":"20.255810","name":"Inmedio-Jászladány Kossuth út","zip":"5055","county":"Jász-Nagykun-Szolnok megye","city":"Jászladány","address":"5055, Jászladány, Kossuth Lajos utca 93.","desc":"Falu központ, COOP ABC-ben.","phone":""},{"c":"pick","id":"0000424795","group":"OMV","lat":"47.306200","lon":"18.744600","name":"OMV-Kajászó M7 Dél (BP-felé)","zip":"2472","county":"Fejér megye","city":"Kajászó","address":"2472, Kajászó, M7   33,4 Km. bal","desc":"BP-felé","phone":""},{"c":"pick","id":"0000424798","group":"OMV","lat":"47.308200","lon":"18.745300","name":"OMV-Kajászó M7 Észak (Balaton felé)","zip":"2472","county":"Fejér megye","city":"Kajászó","address":"2472, Kajászó, Kajászó M7 33,7 km jobb oldal","desc":"Balaton felé","phone":""},{"c":"pick","id":"0000628496","group":"Coop","lat":"47.730680","lon":"20.263180","name":"19. sz. COOP ABC","zip":"3350","county":"Heves megye","city":"Kál","address":"3350, Kál, Dózsa György út 3","desc":"max19-00.akapolna@kapolnaboltok.t-online.hu","phone":""},{"c":"pick","id":"0000516811","group":"OMV","lat":"46.512200","lon":"18.972300","name":"OMV-Kalocsa Bátyai u.","zip":"6300","county":"Bács-Kiskun megye","city":"Kalocsa","address":"6300, Kalocsa, Bátyai u. 83","desc":"","phone":""},{"c":"pick","id":"0000628490","group":"Coop","lat":"47.760480","lon":"20.243510","name":"1. sz. COOP ABC","zip":"3355","county":"Heves megye","city":"Kápolna","address":"3355, Kápolna, Kossuth tér 1","desc":"","phone":""},{"c":"pick","id":"0000813127","group":"OMV","lat":"47.589800","lon":"17.009400","name":"OMV Kapuvár","zip":"9330","county":"Győr-Moson-Sopron megye","city":"Kapuvár","address":"9330, Kapuvár, Petőfi Major .1.","desc":"","phone":""},{"c":"pick","id":"0000813387","group":"Független","lat":"47.596310","lon":"17.028118","name":"Magic System","zip":"9330","county":"Győr-Moson-Sopron megye","city":"Kapuvár","address":"9330, Kapuvár, Cseresznye sor 9","desc":"","phone":""},{"c":"pick","id":"0000628302","group":"OMV","lat":"47.713000","lon":"20.003000","name":"OMV-Karácsond M3 Jobb","zip":"3281","county":"Heves megye","city":"Karácsond","address":"3281, Karácsond, M3 autópálya 82. kmsz jobb","desc":"Pesttől Miskolc felé","phone":""},{"c":"pick","id":"0000628304","group":"OMV","lat":"47.714000","lon":"20.003500","name":"OMV-Karácsond M3 Bal","zip":"3281","county":"Heves megye","city":"Karácsond","address":"3281, Karácsond, M3 autópálya 82. kmsz bal","desc":"06709048863 kassza mobil, éjjel nappal elérhető","phone":""},{"c":"pick","id":"0000432680","group":"Coop","lat":"48.147200","lon":"19.745570","name":"21.sz ABC","zip":"3182","county":"Nógrád megye","city":"Karancslapujtő","address":"3182, Karancslapujtő, Rákóczi út 166","desc":"","phone":""},{"c":"pick","id":"0000937538","group":"Relay\/Inmedio","lat":"47.318790","lon":"20.929430","name":"Inmedio-Karcag Kacsóh Pongrácz út","zip":"5300","county":"Jász-Nagykun-Szolnok megye","city":"Karcag","address":"5300, Karcag, Kacsóh Pongrácz út 3.","desc":"Városi piac bejáratánál.","phone":""},{"c":"pick","id":"0000610209","group":"MOL","lat":"48.252970","lon":"20.646780","name":"MOL 51070 Kazincbarcika","zip":"3700","county":"Borsod-Abaúj-Zemplén megye","city":"Kazincbarcika","address":"3700, Kazincbarcika, Mucsonyi út","desc":"","phone":""},{"c":"pick","id":"0000610210","group":"Coop","lat":"48.256070","lon":"20.627030","name":"502.ABC","zip":"3700","county":"Borsod-Abaúj-Zemplén megye","city":"Kazincbarcika","address":"3700, Kazincbarcika, Egressy u. 52.","desc":"","phone":""},{"c":"pick","id":"0000513842","group":"Relay\/Inmedio","lat":"46.904630","lon":"19.687720","name":"Inmedio-Kecskemét Petőfi Sándor u. 2","zip":"6000","county":"Bács-Kiskun megye","city":"Kecskemét","address":"6000, Kecskemét, Petőfi Sándor utca 2.","desc":"UNIVER COOP üzlet mellett 10 emeletes épület alatt,","phone":""},{"c":"pick","id":"0000513989","group":"Relay\/Inmedio","lat":"46.888200","lon":"19.633800","name":"Inmedio-Kecskemét Auchan","zip":"6000","county":"Bács-Kiskun megye","city":"Kecskemét","address":"6000, Kecskemét, Dunaföldvári út 2.","desc":"Auchan üzletközpont (Pólus Róna) középső bejáratnál","phone":""},{"c":"pick","id":"0000514078","group":"Relay\/Inmedio","lat":"46.910900","lon":"19.693560","name":"Kecskemét Budai piac","zip":"6000","county":"Bács-Kiskun megye","city":"Kecskemét","address":"6000, Kecskemét, Budai utca 2.","desc":"Bent a Piaccsarnokban.","phone":""},{"c":"pick","id":"0000516721","group":"OMV","lat":"46.888200","lon":"19.633800","name":"OMV-Kecskemét Dunaföldvári út","zip":"6000","county":"Bács-Kiskun megye","city":"Kecskemét","address":"6000, Kecskemét, Dunaföldvári út 4.","desc":"","phone":""},{"c":"pick","id":"0000516881","group":"Független","lat":"46.919233","lon":"19.676662","name":"Tuti-Tipp Lottózó","zip":"6000","county":"Bács-Kiskun megye","city":"Kecskemét","address":"6000, Kecskemét, Március 15 utca 15 fsz. 20","desc":"csak készpénzes fizetés lehetséges!  ","phone":""},{"c":"pick","id":"0000613652","group":"Coop","lat":"47.986200","lon":"20.955090","name":"634.ABC","zip":"3579","county":"Borsod-Abaúj-Zemplén megye","city":"Kesznyéten","address":"3579, Kesznyéten, Béke u. 1","desc":"","phone":""},{"c":"pick","id":"0000740471","group":"OMV","lat":"46.776900","lon":"17.243130","name":"OMV - Keszthely","zip":"8360","county":"Zala megye","city":"Keszthely","address":"8360, Keszthely, Csapás u. 2505\/3","desc":"","phone":""},{"c":"pick","id":"0000442383","group":"OMV","lat":"47.501970","lon":"18.045220","name":"OMV-Kisbér  81. főút","zip":"2870","county":"Komárom-Esztergom megye","city":"Kisbér","address":"2870, Kisbér, 81. sz főút","desc":"","phone":""},{"c":"pick","id":"0000512655","group":"OMV","lat":"46.625900","lon":"19.274000","name":"OMV-Kiskőrös Dózsa György út","zip":"6200","county":"Bács-Kiskun megye","city":"Kiskőrös","address":"6200, Kiskőrös, Dózsa György út 99.","desc":"","phone":""},{"c":"pick","id":"0000418008","group":"MOL","lat":"47.202150","lon":"19.011800","name":"MOL 17137 Kiskunlacháza","zip":"2340","county":"Pest megye","city":"Kiskunlacháza","address":"2340, Kiskunlacháza, Hadház u. 2.","desc":"","phone":""},{"c":"pick","id":"0000514247","group":"MOL","lat":"46.490650","lon":"19.720370","name":"MOL 45254 Kiskunmajsa","zip":"6120","county":"Bács-Kiskun megye","city":"Kiskunmajsa","address":"6120, Kiskunmajsa, Halasi u. 99.","desc":"","phone":""},{"c":"pick","id":"0000628500","group":"Coop","lat":"47.851960","lon":"20.146477","name":"35.sz. COOP MINI","zip":"3264","county":"Heves megye","city":"Kisnána","address":"3264, Kisnána, Szabadság út 1","desc":"ebéd 10:30 - 14:00","phone":""},{"c":"pick","id":"0000417087","group":"OMV","lat":"47.548783","lon":"19.265271","name":"Amizade Kft. (OMV)","zip":"2143","county":"Pest megye","city":"Kistarcsa","address":"2143, Kistarcsa, Szabadság út 56","desc":"","phone":""},{"c":"pick","id":"0000937836","group":"Relay\/Inmedio","lat":"47.217780","lon":"20.757230","name":"Inmedio-Kisújszállás Szabadság","zip":"5310","county":"Jász-Nagykun-Szolnok megye","city":"Kisújszállás","address":"5310, Kisújszállás, Szabadság utca 1.","desc":"Városközpont, K&H mellett.","phone":""},{"c":"pick","id":"0000533527","group":"Coop","lat":"46.187740","lon":"20.427080","name":"Kiszombor Maxi Coop Abc HUNOR","zip":"6775","county":"Csongrád megye","city":"Kiszombor","address":"6775, Kiszombor, Szegedi 1-3","desc":"","phone":""},{"c":"pick","id":"0000441606","group":"Relay\/Inmedio","lat":"47.744320","lon":"18.119050","name":"Inmedio-Komárom Igmándi","zip":"2900","county":"Komárom-Esztergom megye","city":"Komárom","address":"2900, Komárom, Igmándi út 11.","desc":"Fő úton az Ázsia center mellett vagy a Rendőrségtől 50m-re. Önnepi nyitvatartás: 2022.12.24.-én és 2022.12.31.-én ZÁRVA","phone":""},{"c":"pick","id":"0000442767","group":"OMV","lat":"47.738200","lon":"18.118100","name":"OMV-Komárom Igmándi u","zip":"2900","county":"Komárom-Esztergom megye","city":"Komárom","address":"2900, Komárom, Igmándi u 49.","desc":"","phone":""},{"c":"pick","id":"0000628495","group":"Coop","lat":"47.744402","lon":"20.253016","name":"12.sz. COOP SZUPER","zip":"3356","county":"Heves megye","city":"Kompolt","address":"3356, Kompolt,  Kápolna út 2\/c","desc":"","phone":""},{"c":"pick","id":"0000525950","group":"Független","lat":"46.759317","lon":"20.793443","name":"Profnet","zip":"5553","county":"Békés megye","city":"Kondoros","address":"5553, Kondoros, Hősök útja 17\/1","desc":"Mindennap 12:00-13:00 között zárva","phone":""},{"c":"pick","id":"0000821233","group":"OMV","lat":"47.020800","lon":"16.616500","name":"OMV-Körmend Rákóczi út","zip":"9900","county":"Vas megye","city":"Körmend","address":"9900, Körmend, Rákóczi út 92","desc":"","phone":""},{"c":"pick","id":"0000820769","group":"OMV","lat":"47.378700","lon":"16.558000","name":"OMV-Kőszeg Szombathelyi út","zip":"9730","county":"Vas megye","city":"Kőszeg","address":"9730, Kőszeg, Szombathelyi út 2.","desc":"","phone":""},{"c":"pick","id":"0000823047","group":"Relay\/Inmedio","lat":"47.388490","lon":"16.542080","name":"Inmedio-Kőszeg Városház u.","zip":"9730","county":"Vas megye","city":"Kőszeg","address":"9730, Kőszeg, Városház utca 5.","desc":"Fő tér, könyvesbolt mellett.    2023.01.18 tól nyitva","phone":""},{"c":"pick","id":"0000730982","group":"Független","lat":"46.751987","lon":"17.859551","name":"Erika ABC","zip":"8627","county":"Somogy megye","city":"Kötcse","address":"8627, Kötcse, Fő u. 1","desc":"az üzlet 12:00-15:30 zárva!  Bankártyás fizetésre nincsen lehetőség","phone":""},{"c":"pick","id":"0000748127","group":"MOL","lat":"46.436110","lon":"16.737050","name":"MOL 35031 Letenye","zip":"8868","county":"Zala megye","city":"Letenye","address":"8868, Letenye, Bajcsy-Zsilinszki Endre u.","desc":"","phone":""},{"c":"pick","id":"0000614226","group":"Coop","lat":"48.190190","lon":"21.277010","name":"Mád 86.sz Maxi Coop Abc","zip":"3909","county":"Borsod-Abaúj-Zemplén megye","city":"Mád","address":"3909, Mád, Rákóczi út 2","desc":"","phone":""},{"c":"pick","id":"0000415409","group":"Relay\/Inmedio","lat":"47.459100","lon":"19.334790","name":"Inmedio-Maglód Auchan","zip":"2234","county":"Pest megye","city":"Maglód","address":"2234, Maglód, Eszterházy János utca 1.","desc":"Auchan jobb oldali főbejárat (szemben pénzváltó, mellette Sebastiano cipő bolt)","phone":""},{"c":"pick","id":"0000416711","group":"OMV","lat":"47.447730","lon":"19.362700","name":"OMV Maglód","zip":"2234","county":"Pest megye","city":"Maglód","address":"2234, Maglód, Jászberényi út 1528\/1.","desc":"","phone":""},{"c":"pick","id":"0000733578","group":"MOL","lat":"46.591010","lon":"17.407130","name":"MOL 33250 Marcali","zip":"8700","county":"Somogy megye","city":"Marcali","address":"8700, Marcali, Noszlopy Gáspár u. 37.","desc":"","phone":""},{"c":"pick","id":"0000938242","group":"Független","lat":"47.017905","lon":"20.284082","name":"M&H Ajándéküzlet","zip":"5435","county":"Jász-Nagykun-Szolnok megye","city":"Martfű","address":"5435, Martfű, Szolnoki u. 142","desc":"Csak készpénzes fizetés lehetséges!!","phone":""},{"c":"pick","id":"0000921040","group":"Relay\/Inmedio","lat":"47.951520","lon":"22.314290","name":"Relay-MÁV állomás","zip":"4700","county":"Szabolcs-Szatmár-Bereg megye","city":"Mátészalka","address":"4700, Mátészalka, Máv állomás,  Seregély utca 1.","desc":"Máv állomáson belül Relay hírlapbolt","phone":""},{"c":"pick","id":"0000921042","group":"Relay\/Inmedio","lat":"47.950390","lon":"22.325200","name":"Inmedio-Mátészalka TESCO","zip":"4700","county":"Szabolcs-Szatmár-Bereg megye","city":"Mátészalka","address":"4700, Mátészalka, Alkotmány út 1\/a.","desc":"Tesco jobbra a 4 üzlet","phone":""},{"c":"pick","id":"0000922116","group":"MOL","lat":"47.959790","lon":"22.320340","name":"MOL 56052 Mátészalka","zip":"4700","county":"Szabolcs-Szatmár-Bereg megye","city":"Mátészalka","address":"4700, Mátészalka, Vásár tér 5.","desc":"","phone":""},{"c":"pick","id":"0000925252","group":"Relay\/Inmedio","lat":"47.955130","lon":"22.324850","name":"Inmedio-Mátészalka","zip":"4700","county":"Szabolcs-Szatmár-Bereg megye","city":"Mátészalka","address":"4700, Mátészalka, Bajcsy-Zsilinszky utca 24.","desc":"Városközpontban található Inmedio bolt.","phone":""},{"c":"pick","id":"0000925580","group":"OMV","lat":"47.962611","lon":"22.299635","name":"Green Petrol Kft. (OMV)","zip":"4700","county":"Szabolcs-Szatmár-Bereg megye","city":"Mátészalka","address":"4700, Mátészalka, Jármi út 20","desc":"","phone":""},{"c":"pick","id":"0000613763","group":"Coop","lat":"48.187090","lon":"21.057570","name":"603. Maxi-COOP ABC","zip":"3718","county":"Borsod-Abaúj-Zemplén megye","city":"Megyaszó","address":"3718, Megyaszó, Fő út 27","desc":"","phone":""},{"c":"pick","id":"0000524245","group":"MOL","lat":"46.820490","lon":"21.031640","name":"MOL 4137101","zip":"5650","county":"Békés megye","city":"Mezőberény","address":"5650, Mezőberény, Békési út","desc":"","phone":""},{"c":"pick","id":"0000524248","group":"MOL","lat":"46.319880","lon":"20.812630","name":"MOL 41297 Mezőhegyes","zip":"5820","county":"Békés megye","city":"Mezőhegyes","address":"5820, Mezőhegyes, Kinizsi tér 1.","desc":"","phone":""},{"c":"pick","id":"0000614552","group":"Független","lat":"47.810405","lon":"20.573518","name":"Copix Papírbolt","zip":"3400","county":"Borsod-Abaúj-Zemplén megye","city":"Mezőkövesd","address":"3400, Mezőkövesd, Juharfa u. 4.","desc":"","phone":""},{"c":"pick","id":"0000533414","group":"Coop","lat":"46.525630","lon":"20.189700","name":"230.sz. Oncsa sori Abc HUNOR","zip":"6630","county":"Csongrád megye","city":"Mindszent","address":"6630, Mindszent, Oncsa sor 10","desc":"","phone":""},{"c":"pick","id":"0000610477","group":"Relay\/Inmedio","lat":"48.106880","lon":"20.791940","name":"Relay Cafe Miskolc","zip":"3500","county":"Borsod-Abaúj-Zemplén megye","city":"Miskolc","address":"3500, Miskolc, Búza tér 20\/b","desc":"az aluljáróból feljőve a sárga busz irányában található üveges átvételi pont","phone":""},{"c":"pick","id":"0000610506","group":"Coop","lat":"48.105490","lon":"20.792060","name":"101 ÁRUCSARNOK","zip":"3500","county":"Borsod-Abaúj-Zemplén megye","city":"Miskolc","address":"3500, Miskolc, Búza tér 1","desc":"McDonalds és Pláza közelében egy nagy Coop üzlet.  ","phone":""},{"c":"pick","id":"0000610514","group":"Coop","lat":"48.092920","lon":"20.806450","name":"105. ABC","zip":"3500","county":"Borsod-Abaúj-Zemplén megye","city":"Miskolc","address":"3500, Miskolc, Kisfaludy u. 31-33.","desc":"","phone":""},{"c":"pick","id":"0000610515","group":"Coop","lat":"48.096360","lon":"20.762380","name":"121. sz. Avas Maxi Coop ABC","zip":"3500","county":"Borsod-Abaúj-Zemplén megye","city":"Miskolc","address":"3500, Miskolc, Klapka u. 27-29.","desc":"","phone":""},{"c":"pick","id":"0000610556","group":"MOL","lat":"48.057380","lon":"20.796650","name":"MOL 52033 Miskolc","zip":"3500","county":"Borsod-Abaúj-Zemplén megye","city":"Miskolc","address":"3500, Miskolc, Pesti út II. (kijövő)","desc":"","phone":""},{"c":"pick","id":"0000610581","group":"Coop","lat":"48.101030","lon":"20.713280","name":"108.sz ABC","zip":"3500","county":"Borsod-Abaúj-Zemplén megye","city":"Miskolc","address":"3500, Miskolc, Kiss Tábornok u. 4.","desc":"","phone":""},{"c":"pick","id":"0000610583","group":"Coop","lat":"48.056590","lon":"20.788180","name":"107.SZ. ABC","zip":"3516","county":"Borsod-Abaúj-Zemplén megye","city":"Miskolc","address":"3516, Miskolc, Szolártsik Sándor tér 23","desc":"","phone":""},{"c":"pick","id":"0000610586","group":"Coop","lat":"48.083330","lon":"20.719900","name":"109.ABC","zip":"3500","county":"Borsod-Abaúj-Zemplén megye","city":"Miskolc","address":"3500, Miskolc, Szeder u. 29","desc":"","phone":""},{"c":"pick","id":"0000610587","group":"Coop","lat":"48.103270","lon":"20.688930","name":"110.ABC","zip":"3500","county":"Borsod-Abaúj-Zemplén megye","city":"Miskolc","address":"3500, Miskolc, Kurucz u. 47\/A","desc":"","phone":""},{"c":"pick","id":"0000610805","group":"Relay\/Inmedio","lat":"48.058330","lon":"20.801210","name":"Inmedio-Miskolc Auchan Pesti u.","zip":"3500","county":"Borsod-Abaúj-Zemplén megye","city":"Miskolc","address":"3500, Miskolc, Pesti út 9.","desc":"A Cora jobb oldali főbejáratán érkezve azonnal látható","phone":""},{"c":"pick","id":"0000614035","group":"Relay\/Inmedio","lat":"48.109010","lon":"20.835970","name":"Inmedio-Miskolc Auchan József A.út","zip":"3527","county":"Borsod-Abaúj-Zemplén megye","city":"Miskolc","address":"3527, Miskolc, József Attila utca 87.","desc":"Az Auchan jobb oldali főbejáratától egyenesen. üzemeltető váltás","phone":""},{"c":"pick","id":"0000614334","group":"Coop","lat":"48.101210","lon":"20.789850","name":"150. sz. Coop","zip":"3500","county":"Borsod-Abaúj-Zemplén megye","city":"Miskolc","address":"3500, Miskolc, Vörösmarty út 17","desc":"","phone":""},{"c":"pick","id":"0000614341","group":"Coop","lat":"48.082530","lon":"20.777610","name":"140.sz Unió Coop","zip":"3500","county":"Borsod-Abaúj-Zemplén megye","city":"Miskolc","address":"3500, Miskolc, Szentgyörgy út 22","desc":"","phone":""},{"c":"pick","id":"0000614415","group":"OMV","lat":"48.083600","lon":"20.784800","name":"OMV - Miskolc Csabai kapu","zip":"3529","county":"Borsod-Abaúj-Zemplén megye","city":"Miskolc","address":"3529, Miskolc, Testvérvárosok út 2\/a.(Csabai kapu","desc":"felújítás miatt 03-16-tól 04.02- zárva","phone":""},{"c":"pick","id":"0000614554","group":"Független","lat":"48.070670","lon":"20.777853","name":"Tetőlemez Centrum","zip":"3508","county":"Borsod-Abaúj-Zemplén megye","city":"Miskolc","address":"3508, Miskolc, Futó utca 70","desc":"2024.02.19-én zárva tart","phone":""},{"c":"pick","id":"0000713935","group":"Független","lat":"45.992481","lon":"18.691609","name":"Kiko-Ablak Bemutatóterem","zip":"7700","county":"Baranya megye","city":"Mohács","address":"7700, Mohács, Szentháromság utca  5\/A  Fszt","desc":"12:00-tól 13:00-ig zárva tart az üzlet.","phone":""},{"c":"pick","id":"0000417199","group":"Független","lat":"47.348764","lon":"19.447653","name":"Kiwisun és infraslimX","zip":"2200","county":"Pest megye","city":"Monor","address":"2200, Monor, Kossuth Lajos utca  95   4 üzlet","desc":"","phone":""},{"c":"pick","id":"0000811052","group":"MOL","lat":"47.871590","lon":"17.217650","name":"MOL Mosonmagyaróvár M1 határ felé","zip":"9200","county":"Győr-Moson-Sopron megye","city":"Mosonmagyaróvár","address":"9200, Mosonmagyaróvár, M 1 - M 15. autópálya I.","desc":"162. km-nél","phone":""},{"c":"pick","id":"0000811655","group":"Relay\/Inmedio","lat":"47.864900","lon":"17.273770","name":"Inmedio Mosonmagyaróvár","zip":"9200","county":"Győr-Moson-Sopron megye","city":"Mosonmagyaróvár","address":"9200, Mosonmagyaróvár, Kormos István lakótelep 2-4.","desc":"Rendőrségtől 120m 4 emeletes zöld tömb aljába\/ebédidő:12:00-13:00.","phone":""},{"c":"pick","id":"0000727188","group":"Coop","lat":"46.411350","lon":"18.753730","name":"Mözs 14.sz vegyesbolt","zip":"7131","county":"Tolna megye","city":"Mözs","address":"7131, Mözs, Alkotmány u 32","desc":"10.24.-10.31. között a nyitvatartás: 5:30-13:15","phone":""},{"c":"pick","id":"0000613605","group":"Coop","lat":"48.282620","lon":"20.663240","name":"806.ABC","zip":"3744","county":"Borsod-Abaúj-Zemplén megye","city":"Múcsony","address":"3744, Múcsony, Fő u. 31","desc":"","phone":""},{"c":"pick","id":"0000924263","group":"Coop","lat":"47.865624","lon":"22.391187","name":"Csemege Abc","zip":"4355","county":"Szabolcs-Szatmár-Bereg megye","city":"Nagyecsed","address":"4355, Nagyecsed, Hunyadi u. 6.","desc":"","phone":""},{"c":"pick","id":"0000446017","group":"Független","lat":"47.628077","lon":"18.057274","name":"TRENAKER KFT.","zip":"2942","county":"Komárom-Esztergom megye","city":"Nagyigmánd","address":"2942, Nagyigmánd, Tárkányi út 17","desc":"2023.12.27 -12. 29 között zárva tart!","phone":""},{"c":"pick","id":"0000740165","group":"OMV","lat":"46.456000","lon":"17.010000","name":"OMV-Nagykanizsa  Hevesi u.","zip":"8800","county":"Zala megye","city":"Nagykanizsa","address":"8800, Nagykanizsa, Hevesi u. 5.","desc":"","phone":""},{"c":"pick","id":"0000748128","group":"MOL","lat":"46.467060","lon":"16.994750","name":"MOL 35245 Nagykanizsa","zip":"8800","county":"Zala megye","city":"Nagykanizsa","address":"8800, Nagykanizsa, Elkerülő út","desc":"GPS Garai ut.17 alatt található ","phone":""},{"c":"pick","id":"0000748416","group":"OMV","lat":"46.466800","lon":"16.995200","name":"OMV-Nagykanizsa Virág Benedek u.","zip":"8800","county":"Zala megye","city":"Nagykanizsa","address":"8800, Nagykanizsa, Virág Benedek u. 4.","desc":"","phone":""},{"c":"pick","id":"0000748616","group":"Relay\/Inmedio","lat":"46.456510","lon":"16.986780","name":"Relay-Nagykanizsa Volán","zip":"8800","county":"Zala megye","city":"Nagykanizsa","address":"8800, Nagykanizsa, Volán pályaudvar, Báthory utca 2.","desc":"Távolsági buszpályaudvaron.","phone":""},{"c":"pick","id":"0000418945","group":"OMV","lat":"47.042378","lon":"19.784358","name":"OMV Nagykőrös  Ceglédi út","zip":"2750","county":"Pest megye","city":"Nagykőrös","address":"2750, Nagykőrös, Ceglédi út Hrsz.256.","desc":"","phone":""},{"c":"pick","id":"0000535703","group":"Coop","lat":"46.582110","lon":"20.490580","name":"Nagymágocs Hunor Coop Zrt \/ 170.sz Coop Abc","zip":"6622","county":"Csongrád megye","city":"Nagymágocs","address":"6622, Nagymágocs, Mátyás Király u 24","desc":"","phone":""},{"c":"pick","id":"0000418018","group":"MOL","lat":"47.794270","lon":"18.963130","name":"Nagymaros MOL 17351","zip":"2626","county":"Pest megye","city":"Nagymaros","address":"2626, Nagymaros, Váci út 119","desc":"","phone":""},{"c":"pick","id":"0000525949","group":"Független","lat":"46.668537","lon":"20.671465","name":"Nagyszénási csomagpont","zip":"5931","county":"Békés megye","city":"Nagyszénás","address":"5931, Nagyszénás, Szent István u. 5","desc":"","phone":""},{"c":"pick","id":"0000611407","group":"Coop","lat":"47.991230","lon":"20.836390","name":"760. ABC","zip":"3433","county":"Borsod-Abaúj-Zemplén megye","city":"Nyékládháza","address":"3433, Nyékládháza, Kossuth u. 51.","desc":"","phone":""},{"c":"pick","id":"0000921038","group":"Relay\/Inmedio","lat":"47.834780","lon":"22.132240","name":"Inmedio-Nyírbátor Szabadság tér","zip":"4300","county":"Szabolcs-Szatmár-Bereg megye","city":"Nyírbátor","address":"4300, Nyírbátor, Szabadság tér 11.","desc":"Körforgalomban.","phone":""},{"c":"pick","id":"0000925270","group":"Relay\/Inmedio","lat":"47.831660","lon":"22.112280","name":"Inmedio Nyírbátor Tesco","zip":"4300","county":"Szabolcs-Szatmár-Bereg megye","city":"Nyírbátor","address":"4300, Nyírbátor, Debreceni utca 71.","desc":"2 üzlet, virágbolt mellett.","phone":""},{"c":"pick","id":"0000921023","group":"Relay\/Inmedio","lat":"47.947140","lon":"21.706740","name":"Relay-Nyíregyháza MÁV","zip":"4400","county":"Szabolcs-Szatmár-Bereg megye","city":"Nyíregyháza","address":"4400, Nyíregyháza, MÁV pályaudvar, Állomás tér 2.","desc":"MÁV Állomás","phone":""},{"c":"pick","id":"0000925570","group":"Független","lat":"47.946178","lon":"21.702419","name":"Bútor alapanyag \/ EDNETTI Kft.","zip":"4400","county":"Szabolcs-Szatmár-Bereg megye","city":"Nyíregyháza","address":"4400, Nyíregyháza, Kinizsi Pál út 4","desc":"","phone":""},{"c":"pick","id":"0000925573","group":"Független","lat":"47.956793","lon":"21.718408","name":"Sky Travel Utazási iroda","zip":"4400","county":"Szabolcs-Szatmár-Bereg megye","city":"Nyíregyháza","address":"4400, Nyíregyháza, Szabadsdág tér 4","desc":"","phone":""},{"c":"pick","id":"0000925598","group":"Független","lat":"47.948402","lon":"21.704623","name":"Számítástechnikai szaküzlet és szerviz","zip":"4400","county":"Szabolcs-Szatmár-Bereg megye","city":"Nyíregyháza","address":"4400, Nyíregyháza, Petőfi tér 1. 2.emelet","desc":"csak készpénzes fieztés lehetséges!!","phone":""},{"c":"pick","id":"0000925622","group":"Független","lat":"47.952527","lon":"21.722862","name":"Szabolcsbútor","zip":"4400","county":"Szabolcs-Szatmár-Bereg megye","city":"Nyíregyháza","address":"4400, Nyíregyháza, Szent István u. 38","desc":"csak készpénzes fizetés lehetséges!!  12.23-tól 12.27ig zárva tartanak","phone":""},{"c":"pick","id":"0000925623","group":"Független","lat":"47.953690","lon":"21.722610","name":"Zöld Lépés Ökobolt és Kávézó","zip":"4400","county":"Szabolcs-Szatmár-Bereg megye","city":"Nyíregyháza","address":"4400, Nyíregyháza, Bocskai utca 27.","desc":"Fizetés kizárólag csak készpénzzel, Bankkártyás fizetési lehetőség NINCS !!!!","phone":""},{"c":"pick","id":"0000417085","group":"Független","lat":"47.298615","lon":"19.218262","name":"Magna Digital","zip":"2364","county":"Pest megye","city":"Ócsa","address":"2364, Ócsa, Bacsó Béla u. 13","desc":"Csak készpénzes fizetés lehetséges! ","phone":""},{"c":"pick","id":"0000613275","group":"Coop","lat":"48.002650","lon":"20.918410","name":"804.ABC","zip":"3551","county":"Borsod-Abaúj-Zemplén megye","city":"Ónod","address":"3551, Ónod, Hunyadi u. 2\/A","desc":"","phone":""},{"c":"pick","id":"0000524951","group":"REÁL","lat":"46.580031","lon":"20.679125","name":"304. Szőlő ABC","zip":"5900","county":"Békés megye","city":"Orosháza","address":"5900, Orosháza, Avar u. 37.","desc":"","phone":""},{"c":"pick","id":"0000525194","group":"Relay\/Inmedio","lat":"46.576410","lon":"20.706550","name":"Inmedio-Orosháza Könd u.","zip":"5900","county":"Békés megye","city":"Orosháza","address":"5900, Orosháza, Könd utca 47-49.","desc":"Piaccsarnok épületében","phone":""},{"c":"pick","id":"0000610286","group":"Coop","lat":"48.226750","lon":"20.260560","name":"812.ABC","zip":"3600","county":"Borsod-Abaúj-Zemplén megye","city":"Ózd","address":"3600, Ózd, Bolyki Fő u. 67.","desc":"","phone":""},{"c":"pick","id":"0000610288","group":"Relay\/Inmedio","lat":"48.219160","lon":"20.279750","name":"Inmedio-Ózd Vasvár út","zip":"3600","county":"Borsod-Abaúj-Zemplén megye","city":"Ózd","address":"3600, Ózd, Vasvár út 54.","desc":"Közterületen - Vasvár u.54","phone":""},{"c":"pick","id":"0000611883","group":"Relay\/Inmedio","lat":"48.217600","lon":"20.292240","name":"Relay 1310 Ózd","zip":"3600","county":"Borsod-Abaúj-Zemplén megye","city":"Ózd","address":"3600, Ózd, Munkás út 2.","desc":"Autóbusz pályaudvar, bent a váróban.    ","phone":""},{"c":"pick","id":"0000614519","group":"OMV","lat":"48.221457","lon":"20.273519","name":"Goil Petrol Kft. \/ OMV","zip":"3600","county":"Borsod-Abaúj-Zemplén megye","city":"Ózd","address":"3600, Ózd, Brassói út 5","desc":"","phone":""},{"c":"pick","id":"0000727328","group":"OMV","lat":"46.618500","lon":"18.858100","name":"OMV-Paks 6. sz. főút","zip":"7030","county":"Tolna megye","city":"Paks","address":"7030, Paks, 6. sz. főút 110 km","desc":"","phone":""},{"c":"pick","id":"0000832219","group":"MOL","lat":"47.322400","lon":"17.475720","name":"MOL 25535 Pápa","zip":"8500","county":"Veszprém megye","city":"Pápa","address":"8500, Pápa, Csóka fogadó, Jókai út 63.","desc":"","phone":""},{"c":"pick","id":"0000835043","group":"Relay\/Inmedio","lat":"47.328460","lon":"17.467580","name":"Inmedio-Pápa Kossuth u. 30","zip":"8500","county":"Veszprém megye","city":"Pápa","address":"8500, Pápa, Kossuth Lajor utca 30.","desc":"MOZI mellett a harmadik üzlet.","phone":""},{"c":"pick","id":"0000835892","group":"Független","lat":"47.319382","lon":"17.480321","name":"Bonmart Home","zip":"8500","county":"Veszprém megye","city":"Pápa","address":"8500, Pápa, Veszprémi út 34\/a","desc":"","phone":""},{"c":"pick","id":"0000835883","group":"Független","lat":"47.229805","lon":"17.422672","name":"Panda abc","zip":"8594","county":"Veszprém megye","city":"Pápasalamon","address":"8594, Pápasalamon, Petőfi tér 17","desc":"","phone":""},{"c":"pick","id":"0000613944","group":"Coop","lat":"48.169580","lon":"20.642530","name":"505. sz. Gallya Coop Üzletház \/ Uni","zip":"3777","county":"Borsod-Abaúj-Zemplén megye","city":"Parasznya","address":"3777, Parasznya, Rákóczi u. 42.","desc":"","phone":""},{"c":"pick","id":"0000432803","group":"Független","lat":"47.916268","lon":"19.697746","name":"Fornetti Büfé","zip":"3060","county":"Nógrád megye","city":"Pásztó","address":"3060, Pásztó, Fő utca 27","desc":"csak készpénzes fizetés lehetséges!!","phone":""},{"c":"pick","id":"0000711040","group":"Relay\/Inmedio","lat":"46.072730","lon":"18.232260","name":"Inmedio-Pécs Árkád","zip":"7622","county":"Baranya megye","city":"Pécs","address":"7622, Pécs, Árkád, Bajcsy-Zsilinszky  utca 11.","desc":"Interspar mellett a földszinten.","phone":""},{"c":"pick","id":"0000711043","group":"Relay\/Inmedio","lat":"46.067130","lon":"18.226510","name":"Relay-Pécs MÁV","zip":"7600","county":"Baranya megye","city":"Pécs","address":"7600, Pécs, Vasútállomás, Indóház tér","desc":"Állomás főbejárat után balra","phone":""},{"c":"pick","id":"0000712688","group":"Relay\/Inmedio","lat":"46.071190","lon":"18.232110","name":"Relay-Pécs Volán","zip":"7600","county":"Baranya megye","city":"Pécs","address":"7600, Pécs, Volán pályaudvar Nagy Lajos király-","desc":"Távolsági buszpályaudvaron a pénztárral szemben","phone":""},{"c":"pick","id":"0000713945","group":"Független","lat":"46.074504","lon":"18.211616","name":"Egyedi ajándékvilág-FONTI FIVE KFT.","zip":"7624","county":"Baranya megye","city":"Pécs","address":"7624, Pécs, Rókus utca 3\/1","desc":"Csak készpénzes fizetés lehetséges!!!   ","phone":""},{"c":"pick","id":"0000713946","group":"Független","lat":"46.082669","lon":"18.270352","name":"Brotein Store","zip":"7630","county":"Baranya megye","city":"Pécs","address":"7630, Pécs, Budai Vám 1. (Tesco üzletsor)","desc":"","phone":""},{"c":"pick","id":"0000713954","group":"OMV","lat":"46.079900","lon":"18.255600","name":"OMV-Pécs Zsolnay  út","zip":"7629","county":"Baranya megye","city":"Pécs","address":"7629, Pécs, Zsolnay V. u. 50","desc":"","phone":""},{"c":"pick","id":"0000713947","group":"Független","lat":"45.982170","lon":"18.261478","name":"Innodekor Kft.","zip":"7666","county":"Baranya megye","city":"Pogány","address":"7666, Pogány, Rákóczi u. 8","desc":"csak készpénzes fizetés lehetséges!","phone":""},{"c":"pick","id":"0000917085","group":"Relay\/Inmedio","lat":"47.872300","lon":"21.114310","name":"Inmedio-Polgár Hősök u.","zip":"4090","county":"Hajdú-Bihar megye","city":"Polgár","address":"4090, Polgár, Hősök utca 6.","desc":"Takarékszövetkezett mellett van,","phone":""},{"c":"pick","id":"0000627300","group":"Coop","lat":"47.643590","lon":"20.653320","name":"Poroszló 24.SZ. ABC","zip":"3388","county":"Heves megye","city":"Poroszló","address":"3388, Poroszló, Kossuth u. 5","desc":"","phone":""},{"c":"pick","id":"0000614539","group":"Független","lat":"48.296215","lon":"20.443584","name":"Villamossági Szaküzlet","zip":"3630","county":"Borsod-Abaúj-Zemplén megye","city":"Putnok","address":"3630, Putnok, Zrínyi út 21","desc":"","phone":""},{"c":"pick","id":"0000821450","group":"MOL","lat":"46.981760","lon":"16.283050","name":"MOL 24299 Rábafüzes","zip":"9955","county":"Vas megye","city":"Rábafüzes","address":"9955, Rábafüzes, 8 - as út","desc":"","phone":""},{"c":"pick","id":"0000925596","group":"Független","lat":"48.130881","lon":"21.459077","name":"BeLaMi by GG","zip":"4465","county":"Szabolcs-Szatmár-Bereg megye","city":"Rakamaz","address":"4465, Rakamaz, Kossuth út 53","desc":"csak készpénzes fizetés lehetséges!","phone":""},{"c":"pick","id":"0000438852","group":"OMV","lat":"47.919700","lon":"19.123430","name":"OMV-Rétság  Pusztaszántói u.","zip":"2651","county":"Nógrád megye","city":"Rétság","address":"2651, Rétság, Pusztaszántói u. 1.","desc":"","phone":""},{"c":"pick","id":"0000836401","group":"Független","lat":"46.825931","lon":"17.626464","name":"Révbe Ér Kft. \/ OMV","zip":"8253","county":"Veszprém megye","city":"Révfülöp","address":"8253, Révfülöp, Badacsonyi út 011\/1 hrsz.","desc":"","phone":""},{"c":"pick","id":"0000535546","group":"OMV","lat":"46.189100","lon":"19.995700","name":"OMV-Röszke M5 Bal","zip":"6758","county":"Csongrád megye","city":"Röszke","address":"6758, Röszke, M5 172.km BAL 0112\/25 hrsz","desc":"","phone":""},{"c":"pick","id":"0000535547","group":"OMV","lat":"46.189700","lon":"19.994200","name":"OMV-Röszke M5 Jobb","zip":"6758","county":"Csongrád megye","city":"Röszke","address":"6758, Röszke, M5 172.km JOBB 0112\/60 hrsz","desc":"","phone":""},{"c":"pick","id":"0000614263","group":"Coop","lat":"48.375950","lon":"20.619690","name":"560.sz. Coop","zip":"3733","county":"Borsod-Abaúj-Zemplén megye","city":"Rudabánya","address":"3733, Rudabánya, Petőfi u. 1\/a","desc":"","phone":""},{"c":"pick","id":"0000614059","group":"Coop","lat":"48.267110","lon":"20.579100","name":"510.Coop ABC","zip":"3720","county":"Borsod-Abaúj-Zemplén megye","city":"Sajókaza","address":"3720, Sajókaza, Kossuth út 18","desc":"","phone":""},{"c":"pick","id":"0000613262","group":"Coop","lat":"48.034980","lon":"20.889060","name":"739.ÉLELMISZER","zip":"3573","county":"Borsod-Abaúj-Zemplén megye","city":"Sajópetri","address":"3573, Sajópetri, Dózsa Gy. u. 27.","desc":"","phone":""},{"c":"pick","id":"0000613892","group":"Coop","lat":"48.210510","lon":"20.707410","name":"501.ABC","zip":"3770","county":"Borsod-Abaúj-Zemplén megye","city":"Sajószentpéter","address":"3770, Sajószentpéter, Harica u. 16.","desc":"","phone":""},{"c":"pick","id":"0000613898","group":"MOL","lat":"48.208780","lon":"20.732940","name":"MOL 51144 Sajószentpéter","zip":"3770","county":"Borsod-Abaúj-Zemplén megye","city":"Sajószentpéter","address":"3770, Sajószentpéter, KOSSUTH U.1.","desc":"","phone":""},{"c":"pick","id":"0000614553","group":"Független","lat":"48.222681","lon":"20.695445","name":"Família Söröző és Lottózó","zip":"3770","county":"Borsod-Abaúj-Zemplén megye","city":"Sajószentpéter","address":"3770, Sajószentpéter, Erőmű utca 18.","desc":"","phone":""},{"c":"pick","id":"0000614204","group":"Coop","lat":"48.180200","lon":"20.829810","name":"454. ÉLELMISZER","zip":"3712","county":"Borsod-Abaúj-Zemplén megye","city":"Sajóvámos","address":"3712, Sajóvámos, Dózsa Gy. u. 2","desc":"","phone":""},{"c":"pick","id":"0000430800","group":"Relay\/Inmedio","lat":"48.104540","lon":"19.805950","name":"Inmedio-Salgótarján Erzsébet tér","zip":"3100","county":"Nógrád megye","city":"Salgótarján","address":"3100, Salgótarján, Erzsébet tér 5.","desc":"","phone":""},{"c":"pick","id":"0000432458","group":"OMV","lat":"48.080700","lon":"19.793410","name":"OMV-Salgótarján Rákóczi u.","zip":"3100","county":"Nógrád megye","city":"Salgótarján","address":"3100, Salgótarján, Rákóczi 182","desc":"","phone":""},{"c":"pick","id":"0000432647","group":"Coop","lat":"48.103590","lon":"19.806690","name":"201. Unió Coop","zip":"3100","county":"Nógrád megye","city":"Salgótarján","address":"3100, Salgótarján, Rákóczi út 20","desc":"","phone":""},{"c":"pick","id":"0000432648","group":"Coop","lat":"48.105350","lon":"19.808370","name":"200. sz. Coop ABC","zip":"3100","county":"Nógrád megye","city":"Salgótarján","address":"3100, Salgótarján, Rákóczi u. 17","desc":"régi Profi, a Garzon alatt","phone":""},{"c":"pick","id":"0000424512","group":"OMV","lat":"46.897550","lon":"18.614180","name":"OMV-Sárbogárd Ady Endre út","zip":"7000","county":"Fejér megye","city":"Sárbogárd","address":"7000, Sárbogárd, Ady Endre 3","desc":"","phone":""},{"c":"pick","id":"0000524247","group":"MOL","lat":"46.739500","lon":"21.374700","name":"MOL 41190-03","zip":"5720","county":"Békés megye","city":"Sarkad","address":"5720, Sarkad, Vásártér 1-3.","desc":"","phone":""},{"c":"pick","id":"0000524949","group":"REÁL","lat":"46.748001","lon":"21.382092","name":"601. ABC Áruház","zip":"5720","county":"Békés megye","city":"Sarkad","address":"5720, Sarkad, Szt István tér 2-4","desc":"","phone":""},{"c":"pick","id":"0000713932","group":"Független","lat":"46.255478","lon":"18.105706","name":"Kop-Ka Zrt.","zip":"7370","county":"Baranya megye","city":"Sásd","address":"7370, Sásd, Rákóczi Ferenc u. 26","desc":"","phone":""},{"c":"pick","id":"0000610144","group":"Coop","lat":"48.395050","lon":"21.655630","name":"822. ABC","zip":"3980","county":"Borsod-Abaúj-Zemplén megye","city":"Sátoraljaújhely","address":"3980, Sátoraljaújhely, Széchenyi tér 5-7.","desc":"","phone":""},{"c":"pick","id":"0000614115","group":"OMV","lat":"48.413230","lon":"21.647710","name":"OMV - Sátoraljaújhely","zip":"3980","county":"Borsod-Abaúj-Zemplén megye","city":"Sátoraljaújhely","address":"3980, Sátoraljaújhely, Kazinczy u. 156","desc":"","phone":""},{"c":"pick","id":"0000425499","group":"Független","lat":"47.116754","lon":"18.571240","name":"Megálló Kereskedés Kft.","zip":"8111","county":"Fejér megye","city":"Seregélyes","address":"8111, Seregélyes, Fő utca 66","desc":"csak készpénzes fizetés lehetséges!!  10:00-14:00 között zárva  ","phone":""},{"c":"pick","id":"0000810381","group":"Relay\/Inmedio","lat":"47.682880","lon":"16.588500","name":"Inmedio-Sopron Szechenyi ter","zip":"9400","county":"Győr-Moson-Sopron megye","city":"Sopron","address":"9400, Sopron, Széchenyi tér 13.","desc":"Belváros, a Perkovátz-ház mellett.","phone":""},{"c":"pick","id":"0000811082","group":"MOL","lat":"47.738710","lon":"16.546680","name":"MOL 22249 Sopron","zip":"9400","county":"Győr-Moson-Sopron megye","city":"Sopron","address":"9400, Sopron, Határátkelő I. (kimenő)","desc":"","phone":""},{"c":"pick","id":"0000811900","group":"Relay\/Inmedio","lat":"47.681510","lon":"16.593400","name":"Inmedio-Sopron Magyar út","zip":"9400","county":"Győr-Moson-Sopron megye","city":"Sopron","address":"9400, Sopron, Magyar utca 5.","desc":"Magyar u. eleje, jobb oldalt, kék színű házban.  Az üzlet hétfőtől péntekig 12:00 és 13:00 között zárva tart.","phone":""},{"c":"pick","id":"0000810549","group":"Coop","lat":"47.484120","lon":"16.738930","name":"1.sz.Coop Sopronhorpács","zip":"9463","county":"Győr-Moson-Sopron megye","city":"Sopronhorpács","address":"9463, Sopronhorpács, Fő u. 12\/A","desc":"Új nyitvatartási rend 2020.11.17-től:  H-P 05:30-11:30 és 15:00-17:00;    Szombaton 05:30- 10:30;    Vasárnap zárva","phone":""},{"c":"pick","id":"0000813332","group":"Coop","lat":"47.550651","lon":"16.738006","name":"6. sz .Coop ABC(813332)","zip":"9483","county":"Győr-Moson-Sopron megye","city":"Sopronkövesd","address":"9483, Sopronkövesd, Kossuth Lajos utca 1","desc":"","phone":""},{"c":"pick","id":"0000513866","group":"MOL","lat":"46.873170","lon":"19.228940","name":"Mol 45169","zip":"6080","county":"Bács-Kiskun megye","city":"Szabadszállás","address":"6080, Szabadszállás, Petőfi S. 19","desc":"","phone":""},{"c":"pick","id":"0000419286","group":"Coop","lat":"47.636025","lon":"19.312318","name":"021. sz. COOP ABC \/ Gödöllő COOP","zip":"2111","county":"Pest megye","city":"Szada","address":"2111, Szada, Dózsa Gy. út 80","desc":"","phone":""},{"c":"pick","id":"0000525211","group":"Relay\/Inmedio","lat":"46.860850","lon":"20.553550","name":"Inmedio-Szabadság út","zip":"5540","county":"Békés megye","city":"Szarvas","address":"5540, Szarvas, Szabadság út 35.","desc":"Városközpont, Kávézó mellett.","phone":""},{"c":"pick","id":"0000525937","group":"Független","lat":"46.863709","lon":"20.546291","name":"XuPe.hu - Játékosoktól Játékosoknak","zip":"5540","county":"Békés megye","city":"Szarvas","address":"5540, Szarvas, Orosházi út 8.","desc":"kizárólag készpénzes fizetés lehetséges!!","phone":""},{"c":"pick","id":"0000525945","group":"Független","lat":"46.862408","lon":"20.547674","name":"Szarvasi Általános Informatikai Kft","zip":"5540","county":"Békés megye","city":"Szarvas","address":"5540, Szarvas, Szabadság út 21","desc":"","phone":""},{"c":"pick","id":"0000439006","group":"MOL","lat":"48.089180","lon":"19.528190","name":"Szécsény MOL RT.   18133","zip":"3170","county":"Nógrád megye","city":"Szécsény","address":"3170, Szécsény, Salgótarjáni út","desc":"","phone":""},{"c":"pick","id":"0000531118","group":"Relay\/Inmedio","lat":"46.250590","lon":"20.146240","name":"Inmedio-Szeged Kárász","zip":"6722","county":"Csongrád megye","city":"Szeged","address":"6722, Szeged, Kárász - Dugonics tér 1.","desc":"Kárász u. Dugonics téri végén, H-P 6-20 Sz: 6-18 V: 8-15","phone":""},{"c":"pick","id":"0000531127","group":"Relay\/Inmedio","lat":"46.240060","lon":"20.142890","name":"Relay-Szeged MÁV","zip":"6725","county":"Csongrád megye","city":"Szeged","address":"6725, Szeged, MÁV pályaudvar, Indóház tér","desc":"MÁV állomás, főbejárattól balra","phone":""},{"c":"pick","id":"0000531999","group":"Relay\/Inmedio","lat":"46.273430","lon":"20.104910","name":"Inmedio-Szeged Auchan","zip":"6722","county":"Csongrád megye","city":"Szeged","address":"6722, Szeged, Zápor utca 4.","desc":"","phone":""},{"c":"pick","id":"0000533298","group":"OMV","lat":"46.265100","lon":"20.119100","name":"OMV-Szeged  Dorozsmai út","zip":"6728","county":"Csongrád megye","city":"Szeged","address":"6728, Szeged, Dorozsmai 1","desc":"","phone":""},{"c":"pick","id":"0000533577","group":"OMV","lat":"46.273100","lon":"20.157000","name":"OMV-Szeged Makkosházi krt.","zip":"6723","county":"Csongrád megye","city":"Szeged","address":"6723, Szeged, Makkosházi krt. 1","desc":"","phone":""},{"c":"pick","id":"0000534241","group":"MOL","lat":"46.253450","lon":"20.122870","name":"Mol 5. 4\/4 43108-03","zip":"6725","county":"Csongrád megye","city":"Szeged","address":"6725, Szeged, Kálvária sgt 96","desc":"","phone":""},{"c":"pick","id":"0000534242","group":"MOL","lat":"46.265630","lon":"20.115640","name":"MOL 43078 Szeged","zip":"6722","county":"Csongrád megye","city":"Szeged","address":"6722, Szeged, Dorozsmai út 20.","desc":"Páratlan oldalon atlálható a kút 7-es szám alatt.","phone":""},{"c":"pick","id":"0000535955","group":"Független","lat":"46.267000","lon":"20.166694","name":"Biobogyó Biobolt 2","zip":"6723","county":"Csongrád megye","city":"Szeged","address":"6723, Szeged, Budapesti krt. 4\/A","desc":"csak készpénzes fizetés lehetséges! ","phone":""},{"c":"pick","id":"0000420800","group":"Relay\/Inmedio","lat":"47.193400","lon":"18.409350","name":"Inmedio-Székesfehérvár Fő út","zip":"8000","county":"Fejér megye","city":"Székesfehérvár","address":"8000, Székesfehérvár, Fő út 9.","desc":"Sétáló utca (Ady Endre u. vége).","phone":""},{"c":"pick","id":"0000420801","group":"Relay\/Inmedio","lat":"47.149120","lon":"18.431930","name":"Inmedio-Székesfehérvár Auchan","zip":"8000","county":"Fejér megye","city":"Székesfehérvár","address":"8000, Székesfehérvár, Holland fasor 2.","desc":"Első bejárat (balról a második bolt)  I","phone":""},{"c":"pick","id":"0000424987","group":"MOL","lat":"47.160280","lon":"18.401040","name":"MOL 21271 Székesfehérvár","zip":"8000","county":"Fejér megye","city":"Székesfehérvár","address":"8000, Székesfehérvár, Balatoni út 148","desc":"","phone":""},{"c":"pick","id":"0000425431","group":"Független","lat":"47.172898","lon":"18.422328","name":"Székesfehérvár Depó\/Zova 01 Kft.","zip":"8000","county":"Fejér megye","city":"Székesfehérvár","address":"8000, Székesfehérvár, Széchenyi u. 172 172","desc":"A depó 11:00 és 14:00 óra között ZÁRVA tart.  CSAK KÉSZPÉNZES FIZETÉS LEHETSÉGES!","phone":""},{"c":"pick","id":"0000425496","group":"Független","lat":"47.195557","lon":"18.406335","name":"Chronos Óraszaküzlet","zip":"8000","county":"Fejér megye","city":"Székesfehérvár","address":"8000, Székesfehérvár, Eszperantó tér 6","desc":"Csak készpénzes fizetés lehetséges!! ","phone":""},{"c":"pick","id":"0000425501","group":"Független","lat":"47.192782","lon":"18.404241","name":"KiwiSun Szolárium","zip":"8000","county":"Fejér megye","city":"Székesfehérvár","address":"8000, Székesfehérvár, Ady Endre utca 32","desc":"bankártya terminál megérkezett.  12.24 9-14h  12.25-26 zárva   12.31-én 9-15h   01.01-én zárva","phone":""},{"c":"pick","id":"0000611545","group":"Coop","lat":"48.405950","lon":"20.728330","name":"511.sz Maxi Coop Abc","zip":"3752","county":"Borsod-Abaúj-Zemplén megye","city":"Szendrő","address":"3752, Szendrő, Rákóczi u. 5-7","desc":"","phone":""},{"c":"pick","id":"0000533194","group":"MOL","lat":"46.655740","lon":"20.274540","name":"MOL 42193 Szentes","zip":"6600","county":"Csongrád megye","city":"Szentes","address":"6600, Szentes, Attila út","desc":"","phone":""},{"c":"pick","id":"0000533393","group":"Coop","lat":"46.644510","lon":"20.252340","name":"Szentes 130.sz. ABC Kisáruház HUNOR","zip":"6600","county":"Csongrád megye","city":"Szentes","address":"6600, Szentes, Farkas A. 34.","desc":"","phone":""},{"c":"pick","id":"0000533451","group":"Relay\/Inmedio","lat":"46.652770","lon":"20.257800","name":"Inmedio-Kossuth tér","zip":"6600","county":"Csongrád megye","city":"Szentes","address":"6600, Szentes, Kossuth tér 5.","desc":"Petőfi szállóval szemben, a Görög Sarok mellett,","phone":""},{"c":"pick","id":"0000533475","group":"OMV","lat":"46.671690","lon":"20.252800","name":"OMV-Szentes Csongrádi út","zip":"6600","county":"Csongrád megye","city":"Szentes","address":"6600, Szentes, Csongrádi út","desc":"","phone":""},{"c":"pick","id":"0000821428","group":"MOL","lat":"46.959390","lon":"16.276420","name":"MOL 24170 Szentgotthárd","zip":"9970","county":"Vas megye","city":"Szentgotthárd","address":"9970, Szentgotthárd, Rábafüzesi út 1.","desc":"","phone":""},{"c":"pick","id":"0000610038","group":"Coop","lat":"48.162790","lon":"21.198290","name":"818. ABC","zip":"3900","county":"Borsod-Abaúj-Zemplén megye","city":"Szerencs","address":"3900, Szerencs, Rákóczi u. 74-80.","desc":"","phone":""},{"c":"pick","id":"0000614051","group":"Relay\/Inmedio","lat":"48.156740","lon":"21.201770","name":"Inmedio-Szerencs TESCO","zip":"3900","county":"Borsod-Abaúj-Zemplén megye","city":"Szerencs","address":"3900, Szerencs, Gyár utca 40.","desc":"Csak készpénzel lehet fizetni!!!  Tesco bejárattól jobbra látszik","phone":""},{"c":"pick","id":"0000410806","group":"Relay\/Inmedio","lat":"47.382470","lon":"19.027130","name":"Inmedio-Szigetszentmiklós Auchan","zip":"2310","county":"Pest megye","city":"Szigetszentmiklós","address":"2310, Szigetszentmiklós, Auchan M0., Háros utca 120.","desc":"Az Auchan pénztársorával szemben, a dohánybolt mellett.","phone":""},{"c":"pick","id":"0000415755","group":"OMV","lat":"47.337290","lon":"19.028720","name":"OMV-Szigetszentmiklós Gyári út","zip":"2310","county":"Pest megye","city":"Szigetszentmiklós","address":"2310, Szigetszentmiklós, Gyári út 3237\/hrsz","desc":"","phone":""},{"c":"pick","id":"0000417659","group":"OMV","lat":"47.379600","lon":"19.052800","name":"OMV-Szigetszentmiklós M0","zip":"2310","county":"Pest megye","city":"Szigetszentmiklós","address":"2310, Szigetszentmiklós, M0  19Km","desc":"","phone":""},{"c":"pick","id":"0000713953","group":"Független","lat":"46.044110","lon":"17.797730","name":"EgészségVilág Szigetvár","zip":"7900","county":"Baranya megye","city":"Szigetvár","address":"7900, Szigetvár, Almáspatak utca 7. (Tesco üzletsor)","desc":"","phone":""},{"c":"pick","id":"0000627701","group":"Coop","lat":"47.773020","lon":"20.483110","name":"Szihalom 42.SZ. ABC","zip":"3377","county":"Heves megye","city":"Szihalom","address":"3377, Szihalom, Tárkányi u 771\/2","desc":"","phone":""},{"c":"pick","id":"0000936029","group":"Relay\/Inmedio","lat":"47.179190","lon":"20.178080","name":"Relay-Szolnok MÁV","zip":"5000","county":"Jász-Nagykun-Szolnok megye","city":"Szolnok","address":"5000, Szolnok, Vasútállomás, Jubileum tér","desc":"Vasútállomás","phone":""},{"c":"pick","id":"0000937456","group":"Relay\/Inmedio","lat":"47.159600","lon":"20.199080","name":"Inmedio-Szolnok Szandaszőlős","zip":"5000","county":"Jász-Nagykun-Szolnok megye","city":"Szolnok","address":"5000, Szolnok, Szandaszőlős, Felső Szandai rét 1.","desc":"Cora, bejárattól balra 10. üzlet","phone":""},{"c":"pick","id":"0000937838","group":"Relay\/Inmedio","lat":"47.177940","lon":"20.193380","name":"Inmedio-Szolnok Ady Endre u.","zip":"5000","county":"Jász-Nagykun-Szolnok megye","city":"Szolnok","address":"5000, Szolnok, Ady Endre út 15.","desc":"Városközpont, Autóbusz pályaudvar, Pelikán Bevásárlóközpont","phone":""},{"c":"pick","id":"0000938037","group":"OMV","lat":"47.192800","lon":"20.173600","name":"OMV-Szolnok  Thököly út","zip":"5000","county":"Jász-Nagykun-Szolnok megye","city":"Szolnok","address":"5000, Szolnok, Thököly út 91","desc":"","phone":""},{"c":"pick","id":"0000938119","group":"OMV","lat":"47.192700","lon":"20.173500","name":"OMV - Szolnok, Dráva u.","zip":"5000","county":"Jász-Nagykun-Szolnok megye","city":"Szolnok","address":"5000, Szolnok, Dráva u 42","desc":"","phone":""},{"c":"pick","id":"0000820574","group":"MOL","lat":"47.242470","lon":"16.652400","name":"MOL 24266 Szombathely","zip":"9700","county":"Vas megye","city":"Szombathely","address":"9700, Szombathely, Zanati út II.","desc":"","phone":""},{"c":"pick","id":"0000820596","group":"OMV","lat":"47.227200","lon":"16.652000","name":"OMV-Szombathely Csaba út","zip":"9700","county":"Vas megye","city":"Szombathely","address":"9700, Szombathely, Csaba út.  15.","desc":"","phone":""},{"c":"pick","id":"0000820700","group":"OMV","lat":"47.215500","lon":"16.635910","name":"OMV-Szombathely Rumi út","zip":"9700","county":"Vas megye","city":"Szombathely","address":"9700, Szombathely, Rumi út","desc":"","phone":""},{"c":"pick","id":"0000823046","group":"Relay\/Inmedio","lat":"47.241490","lon":"16.611920","name":"Inmedio-Szombathely Szűrcsapó u.","zip":"9700","county":"Vas megye","city":"Szombathely","address":"9700, Szombathely, Szűrcsapó utca 4.","desc":"SMATCH ABC bejáratával szemben.2022.08.21.-én vasárnapi napon technikai okok miatt zárva tart","phone":""},{"c":"pick","id":"0000823578","group":"Független","lat":"47.229418","lon":"16.618946","name":"Árnika Gyógynövényszaküzlet","zip":"9700","county":"Vas megye","city":"Szombathely","address":"9700, Szombathely, Kossuth Lajos utca 20.","desc":"CSAK KÉSZPÉNZES FIZETÉS LEHETSÉGES !!!                        Az átadópont pontos címe: Kossuth Lajos utca 20. Hefele Menyhért u. - Kiskar u. közti sétány.","phone":""},{"c":"pick","id":"0000823580","group":"Független","lat":"47.233610","lon":"16.621900","name":"Varrás és Ruhajavítás Rövidáru","zip":"9700","county":"Vas megye","city":"Szombathely","address":"9700, Szombathely, Mártírok tere 6","desc":"2024 január 17.-én szerdán zárva tart.  Nyitás: 2024 január 18.-án csütörtökön.      csak készpénzes fizetés lehetséges!!","phone":""},{"c":"pick","id":"0000823582","group":"Független","lat":"47.218893","lon":"16.615898","name":"Rapidbox Kft","zip":"9700","county":"Vas megye","city":"Szombathely","address":"9700, Szombathely, Bethlen Gábor utca 4\/a","desc":"csak készpénzes fizetés lehetséges!","phone":""},{"c":"pick","id":"0000731014","group":"Független","lat":"46.734477","lon":"18.036868","name":"Fresh Drogéria","zip":"8660","county":"Somogy megye","city":"Tab","address":"8660, Tab, Kossuth L. utca 18","desc":"csak készpénzes fizetés lehetséges!!  12:00-13:00 között zárva!!!   Ünnepi nyitvatartás: 12.24 7.00-13.00 12.29-től 01.03.-ig Szabadság miatt zárva.  ","phone":""},{"c":"pick","id":"0000731036","group":"Független","lat":"46.729736","lon":"18.032655","name":"Focus GSM","zip":"8660","county":"Somogy megye","city":"Tab","address":"8660, Tab, Kossuth Lajos utca 57","desc":"csak készpénzes fizetés lehetséges!!  H-P  12:30-13:00 ebéd szünet","phone":""},{"c":"pick","id":"0000612752","group":"Coop","lat":"48.092120","lon":"21.125840","name":"821.ABC","zip":"3922","county":"Borsod-Abaúj-Zemplén megye","city":"Taktaharkány","address":"3922, Taktaharkány, Megyaszói u. 1\/C","desc":"","phone":""},{"c":"pick","id":"0000831024","group":"MOL","lat":"46.882370","lon":"17.425460","name":"MOL 25247 Tapolca","zip":"8300","county":"Veszprém megye","city":"Tapolca","address":"8300, Tapolca, Keszthelyi u.","desc":"","phone":""},{"c":"pick","id":"0000612643","group":"Coop","lat":"48.128880","lon":"21.345850","name":"820. ABC","zip":"3915","county":"Borsod-Abaúj-Zemplén megye","city":"Tarcal","address":"3915, Tarcal, Fő út 78.","desc":"","phone":""},{"c":"pick","id":"0000442000","group":"Relay\/Inmedio","lat":"47.584100","lon":"18.395950","name":"Relay-Tatabánya MÁV","zip":"2800","county":"Komárom-Esztergom megye","city":"Tatabánya","address":"2800, Tatabánya, Győri út 1","desc":"MÁV pályaudvar, emeleten  12:00-13:00-ig ZÁRVA","phone":""},{"c":"pick","id":"0000937985","group":"Relay\/Inmedio","lat":"46.979880","lon":"20.253670","name":"Inmedio-Tiszaföldvár Malom u.","zip":"5430","county":"Jász-Nagykun-Szolnok megye","city":"Tiszaföldvár","address":"5430, Tiszaföldvár, Malom utca 11.","desc":"","phone":""},{"c":"pick","id":"0000935095","group":"MOL","lat":"47.621450","lon":"20.747520","name":"MOL 44443 Tiszafüred","zip":"5350","county":"Jász-Nagykun-Szolnok megye","city":"Tiszafüred","address":"5350, Tiszafüred, Ady Endre út","desc":"","phone":""},{"c":"pick","id":"0000514245","group":"MOL","lat":"46.942260","lon":"20.097520","name":"Mol 4519101","zip":"6060","county":"Bács-Kiskun megye","city":"Tiszakécske","address":"6060, Tiszakécske, Szolnoki út","desc":"","phone":""},{"c":"pick","id":"0000613734","group":"Coop","lat":"48.036470","lon":"21.062810","name":"601.sz ABC","zip":"3565","county":"Borsod-Abaúj-Zemplén megye","city":"Tiszalúc","address":"3565, Tiszalúc, Hársfa u. 20.","desc":"","phone":""},{"c":"pick","id":"0000614422","group":"Coop","lat":"48.284130","lon":"21.449760","name":"Tolcsva 154. sz. Coop ABC","zip":"3934","county":"Borsod-Abaúj-Zemplén megye","city":"Tolcsva","address":"3934, Tolcsva, Szabadság tér 26.","desc":"","phone":""},{"c":"pick","id":"0000938241","group":"Független","lat":"47.096661","lon":"20.139763","name":"Élelmiszer üzlet\/ Bőség ABC","zip":"5091","county":"Jász-Nagykun-Szolnok megye","city":"Tószeg","address":"5091, Tószeg, Bartók Béla út 2","desc":"Csak készpénzes fizetés lehetséges!  06\/306381138 a bolt száma!","phone":""},{"c":"pick","id":"0000410802","group":"Relay\/Inmedio","lat":"47.443790","lon":"18.887050","name":"Inmedio-Törökbálint Auchan","zip":"2045","county":"Pest megye","city":"Törökbálint","address":"2045, Törökbálint, Torbágy utca 1.  B\/420","desc":"Az Auchan pénztársorával szemben, a dohánybolt mellett.","phone":""},{"c":"pick","id":"0000416804","group":"OMV","lat":"47.420920","lon":"18.918660","name":"Korner 2016 Kft OMV","zip":"2045","county":"Pest megye","city":"Törökbálint","address":"2045, Törökbálint, M0 körgyürű 6.km","desc":"Pest felől Diósdnál meg kell fordulni, vagy Feri hegy felől érkezik és nem kell.  Mc Donalds mellett.","phone":""},{"c":"pick","id":"0000938238","group":"Független","lat":"47.175686","lon":"20.406216","name":"Kikelet Tapéta- Festékház","zip":"5200","county":"Jász-Nagykun-Szolnok megye","city":"Törökszentmiklós","address":"5200, Törökszentmiklós, Batthyány út 152","desc":"Bankkártyával, nem lehet fizetni! Az üzlet ( csomagpont )","phone":""},{"c":"pick","id":"0000922304","group":"MOL","lat":"47.828600","lon":"21.699950","name":"MOL 56163 Újfehértó","zip":"4244","county":"Szabolcs-Szatmár-Bereg megye","city":"Újfehértó","address":"4244, Újfehértó, 4.sz. fkl. út","desc":"","phone":""},{"c":"pick","id":"0000416872","group":"Független","lat":"47.230494","lon":"19.438985","name":"Újlengyel DEPÓ Soli-Dekor Kft.","zip":"2724","county":"Pest megye","city":"Újlengyel","address":"2724, Újlengyel, Arany János u 20","desc":"Csak 15 órától van nyitva!!!","phone":""},{"c":"pick","id":"0000417125","group":"OMV","lat":"47.380727","lon":"19.353252","name":"OMV Üllő","zip":"2225","county":"Pest megye","city":"Üllő","address":"2225, Üllő, Pesti út 1","desc":"","phone":""},{"c":"pick","id":"0000417156","group":"Független","lat":"47.385999","lon":"19.343680","name":"Infra Shape Alakformáló szalon","zip":"2225","county":"Pest megye","city":"Üllő","address":"2225, Üllő, Pesti út 79","desc":"csak bankkártyás fizetés lehetség!","phone":""},{"c":"pick","id":"0000416920","group":"OMV","lat":"47.586092","lon":"18.996918","name":"Oktán 2003. Bt.(OMV)","zip":"2096","county":"Pest megye","city":"Üröm","address":"2096, Üröm, Bécsi út 2","desc":"","phone":""},{"c":"pick","id":"0000410812","group":"Relay\/Inmedio","lat":"47.781560","lon":"19.130380","name":"Relay-Vác Volán","zip":"2600","county":"Pest megye","city":"Vác","address":"2600, Vác, Volán pályaudvar, Galcsek György 1.","desc":"A Volán Pu. bal oldalán található pavilon.","phone":""},{"c":"pick","id":"0000416937","group":"Független","lat":"47.786993","lon":"19.132805","name":"Elektrosziget Villamossági Szaküzle","zip":"2600","county":"Pest megye","city":"Vác","address":"2600, Vác, Naszály út 18","desc":"Csak készpénzes fizetés lehetséges.  ","phone":""},{"c":"pick","id":"0000813375","group":"Független","lat":"47.719782","lon":"17.643978","name":"Szitás Market","zip":"9061","county":"Győr-Moson-Sopron megye","city":"Vámosszabadi","address":"9061, Vámosszabadi, Cinege utca 1","desc":"csak készpénzes fizetés lehetséges!!","phone":""},{"c":"pick","id":"0000821144","group":"MOL","lat":"47.049960","lon":"16.797780","name":"MOL Vasvár Dr. Tretter","zip":"9800","county":"Vas megye","city":"Vasvár","address":"9800, Vasvár, Vasvár,Dr.Tretter L.52","desc":"","phone":""},{"c":"pick","id":"0000418996","group":"OMV","lat":"47.397200","lon":"19.251100","name":"OMV-Vecsés Gyáli út","zip":"2220","county":"Pest megye","city":"Vecsés","address":"2220, Vecsés, Gyáli út 20-22.","desc":"","phone":""},{"c":"pick","id":"0000422522","group":"MOL","lat":"47.241460","lon":"18.632890","name":"MOL 21194 Velence BP felé","zip":"2481","county":"Fejér megye","city":"Velence","address":"2481, Velence, M 7. autópálya II.Bp.felé","desc":"","phone":""},{"c":"pick","id":"0000422523","group":"MOL","lat":"47.244060","lon":"18.637760","name":"MOL 21183 Velence Balaton felé","zip":"2481","county":"Fejér megye","city":"Velence","address":"2481, Velence, M 7. autópálya I. Balaton felé","desc":"","phone":""},{"c":"pick","id":"0000416892","group":"Független","lat":"47.647328","lon":"19.254540","name":"Kizárólag, gyári dolgozók részére létrehozott PPP","zip":"2112","county":"Pest megye","city":"Veresegyház","address":"2112, Veresegyház, Kisrét utca 1","desc":"csak a gyári dolgozók által rendelt csomag kerül átvételre","phone":""},{"c":"pick","id":"0000830039","group":"MOL","lat":"47.098850","lon":"17.927970","name":"MOL 25291 Veszprém","zip":"8200","county":"Veszprém megye","city":"Veszprém","address":"8200, Veszprém, Budapesti u.","desc":"Burger King mellett. Terminál hiba","phone":""},{"c":"pick","id":"0000835233","group":"OMV","lat":"47.104800","lon":"17.930810","name":"OMV-Veszprém Külső-Kádártai u.","zip":"8200","county":"Veszprém megye","city":"Veszprém","address":"8200, Veszprém, Külső-Kádártai u.2. (Körgyűrű, 0387","desc":"","phone":""},{"c":"pick","id":"0000835874","group":"Független","lat":"47.092734","lon":"17.910652","name":"Veszprémi Hirdető Iroda Kft.","zip":"8200","county":"Veszprém megye","city":"Veszprém","address":"8200, Veszprém, Kossuth Lajos utca  6. 1\/1 (20. eme","desc":"2023. december 25.,től., 2024. január 01. ZÁRVA    Nyitás: 2024. január 2. (kedd) 8:00    Csak KÉSZPÉNZES fizetés lehetséges!","phone":""},{"c":"pick","id":"0000813167","group":"Coop","lat":"47.587039","lon":"16.981250","name":"COOP ABC \/ Vivet-Kvart","zip":"9371","county":"Győr-Moson-Sopron megye","city":"Vitnyéd","address":"9371, Vitnyéd, Fő u. 44","desc":"","phone":""},{"c":"pick","id":"0000740089","group":"Relay\/Inmedio","lat":"46.845290","lon":"16.849250","name":"Relay-Zalaegerszeg Volán autóbuszállomás","zip":"8900","county":"Zala megye","city":"Zalaegerszeg","address":"8900, Zalaegerszeg, Volán autóbuszállomás","desc":"Volán pályaudvaron található Relay bolt. Az üzlet vasárnap zárva tart! 12:00-12:30 között ebédszünet miatt zárva.","phone":""},{"c":"pick","id":"0000740202","group":"Relay\/Inmedio","lat":"46.833270","lon":"16.847440","name":"Relay-Zalaegerszeg MÁV","zip":"8900","county":"Zala megye","city":"Zalaegerszeg","address":"8900, Zalaegerszeg, Bajcsy-Zsilinszky tér 1.","desc":"Az üzlet a területen belül a Várócsarnokon belülre költözött.","phone":""},{"c":"pick","id":"0000740570","group":"OMV","lat":"46.834910","lon":"16.830800","name":"OMV-Zalaegerszeg Göcsei u.","zip":"8900","county":"Zala megye","city":"Zalaegerszeg","address":"8900, Zalaegerszeg, Göcsei u. 26","desc":"","phone":""},{"c":"pick","id":"0000740729","group":"Független","lat":"46.844417","lon":"16.844745","name":"PROCOMP Kft.","zip":"8900","county":"Zala megye","city":"Zalaegerszeg","address":"8900, Zalaegerszeg, Iskola köz 3","desc":"csak készpénzes fizetés lehetséges!","phone":""},{"c":"pick","id":"0000748136","group":"MOL","lat":"46.844570","lon":"16.861380","name":"MOL 35182 Zalaegerszeg","zip":"8900","county":"Zala megye","city":"Zalaegerszeg","address":"8900, Zalaegerszeg, Balatoni út I.","desc":"","phone":""},{"c":"pick","id":"0000740339","group":"MOL","lat":"46.509380","lon":"17.187420","name":"MOL 35130 Zalakomár","zip":"8751","county":"Zala megye","city":"Zalakomár","address":"8751, Zalakomár, M7 I. (kimenő)","desc":"INA benzinkút, határ felé vezető oldalon.","phone":""},{"c":"pick","id":"0000740497","group":"OMV","lat":"46.939500","lon":"17.067600","name":"OMV-Zalaszentgrót Koppány út","zip":"8790","county":"Zala megye","city":"Zalaszentgrót","address":"8790, Zalaszentgrót, Koppány út 5","desc":"","phone":""},{"c":"pick","id":"0000812321","group":"Coop","lat":"47.457350","lon":"16.677950","name":"7.sz.Coop Zsira","zip":"9476","county":"Győr-Moson-Sopron megye","city":"Zsira","address":"9476, Zsira, Rákóczi u. 12.","desc":"","phone":""}]